{"crs": {"type": "name", "properties": {"name": "urn:ogc:def:crs:OGC:1.3:CRS84"}}, "type": "FeatureCollection", "features": [{"geometry": {"type": "Point", "coordinates": ["120.2220434489", "22.9850122077"]}, "type": "Feature", "properties": {"phone": "06-2679751", "add": "臺南市東區林森路一段418號", "code": "05", "name": "臺南市政府衛生局林森辦公室", "id": ""}}, {"geometry": {"type": "Point", "coordinates": ["120.2220434489", "22.9850122077"]}, "type": "Feature", "properties": {"phone": "06-2673613", "add": "臺南市東區林森路一段418號", "code": "05", "name": "臺南市東區衛生所", "id": "2321010013"}}, {"geometry": {"type": "Point", "coordinates": ["120.2108751648", "23.0001139056"]}, "type": "Feature", "properties": {"phone": "06-2252404", "add": "臺南市北區西華街50號", "code": "05", "name": "臺南市北區衛生所", "id": "2321040011"}}, {"geometry": {"type": "Point", "coordinates": ["120.1927335889", "22.9950765066"]}, "type": "Feature", "properties": {"phone": "06-2252403", "add": "臺南市中西區環河街94號", "code": "05", "name": "臺南市中西區衛生所", "id": "2321030015"}}, {"geometry": {"type": "Point", "coordinates": ["120.1880675732", "22.9606765001"]}, "type": "Feature", "properties": {"phone": "06-2618578", "add": "臺南市南區南和路6號", "code": "05", "name": "臺南市南區衛生所", "id": "2321020019"}}, {"geometry": {"type": "Point", "coordinates": ["120.1680844439", "22.9943484769"]}, "type": "Feature", "properties": {"phone": "06-2996885", "add": "臺南市安平區育平路310號", "code": "05", "name": "臺南市安平區衛生所", "id": "2321070019"}}, {"geometry": {"type": "Point", "coordinates": ["120.1761095212", "23.0501378476"]}, "type": "Feature", "properties": {"phone": "06-2567406", "add": "臺南市安南區仁安路70號", "code": "05", "name": "臺南市安南區衛生所", "id": "2321060013"}}, {"geometry": {"type": "Point", "coordinates": ["120.317372", "23.307702"]}, "type": "Feature", "properties": {"phone": "06-6329421", "add": "臺南市新營區大宏里三民路72號", "code": "05", "name": "臺南市新營區衛生所", "id": "2341010019"}}, {"geometry": {"type": "Point", "coordinates": ["120.2652968877", "23.3202448143"]}, "type": "Feature", "properties": {"phone": "06-6521041", "add": "臺南市鹽水區中境里武廟路1號", "code": "05", "name": "臺南市鹽水區衛生所", "id": "2341020015"}}, {"geometry": {"type": "Point", "coordinates": ["120.4158151767", "23.3520340535"]}, "type": "Feature", "properties": {"phone": "06-6852014-24", "add": "臺南市白河區國光路5號", "code": "05", "name": "臺南市白河區衛生所", "id": "2341030011"}}, {"geometry": {"type": "Point", "coordinates": ["120.3106736193", "23.2786252878"]}, "type": "Feature", "properties": {"phone": "06-6220464", "add": "臺南市柳營區士林里柳營54-5號", "code": "05", "name": "臺南市柳營區衛生所", "id": "2341090017"}}, {"geometry": {"type": "Point", "coordinates": ["120.3622117897", "23.3654914816"]}, "type": "Feature", "properties": {"phone": "06-6872624", "add": "臺南市後壁區後壁里3號", "code": "05", "name": "臺南市後壁區衛生所", "id": "2341100018"}}, {"geometry": {"type": "Point", "coordinates": ["120.4047233237", "23.3263288871"]}, "type": "Feature", "properties": {"phone": "06-6802618", "add": "臺南市東山區東山里236號", "code": "05", "name": "臺南市東山區衛生所", "id": "2341110014"}}, {"geometry": {"type": "Point", "coordinates": ["120.248456", "23.182667"]}, "type": "Feature", "properties": {"phone": "06-5722215", "add": "臺南市麻豆區興國路11之1號", "code": "05", "name": "臺南市麻豆區衛生所", "id": "2341040017"}}, {"geometry": {"type": "Point", "coordinates": ["120.2623926355", "23.2315358538"]}, "type": "Feature", "properties": {"phone": "06-6892149", "add": "臺南市下營區中山路二段137號", "code": "05", "name": "臺南市下營區衛生所", "id": "2341120010"}}, {"geometry": {"type": "Point", "coordinates": ["120.3468790668", "23.2246732213"]}, "type": "Feature", "properties": {"phone": "06-6988542", "add": "臺南市六甲區中華路110號", "code": "05", "name": "臺南市六甲區衛生所", "id": "2341130016"}}, {"geometry": {"type": "Point", "coordinates": ["120.3161000919", "23.1930681816"]}, "type": "Feature", "properties": {"phone": "06-5791493", "add": "臺南市官田區中山路一段128號", "code": "05", "name": "臺南市官田區衛生所", "id": "2341140012"}}, {"geometry": {"type": "Point", "coordinates": ["120.3569471519", "23.1192680088"]}, "type": "Feature", "properties": {"phone": "06-5761044", "add": "臺南市大內區大內里2號", "code": "05", "name": "臺南市大內區衛生所", "id": "2341150018"}}, {"geometry": {"type": "Point", "coordinates": ["120.177729", "23.163823"]}, "type": "Feature", "properties": {"phone": "06-7224106", "add": "臺南市佳里區進學路159號", "code": "05", "name": "臺南市佳里區衛生所", "id": "2341050013"}}, {"geometry": {"type": "Point", "coordinates": ["120.1819225246", "23.2302770578"]}, "type": "Feature", "properties": {"phone": "06-7833359", "add": "臺南市學甲區建國路38號", "code": "05", "name": "臺南市學甲區衛生所", "id": "2341080011"}}, {"geometry": {"type": "Point", "coordinates": ["120.2032623116", "23.1232811706"]}, "type": "Feature", "properties": {"phone": "06-7952338", "add": "臺南市西港區中山路368號", "code": "05", "name": "臺南市西港區衛生所", "id": "2341160014"}}, {"geometry": {"type": "Point", "coordinates": ["120.1386758606", "23.1401588863"]}, "type": "Feature", "properties": {"phone": "06-7872277", "add": "臺南市七股區大埕里379號", "code": "05", "name": "臺南市七股區衛生所", "id": "2341170010"}}, {"geometry": {"type": "Point", "coordinates": ["120.1586164445", "23.201391446"]}, "type": "Feature", "properties": {"phone": "06-7942007", "add": "臺南市將軍區忠興里185之6號", "code": "05", "name": "臺南市將軍區衛生所", "id": "2341180016"}}, {"geometry": {"type": "Point", "coordinates": ["120.1251995282", "23.2703548435"]}, "type": "Feature", "properties": {"phone": "06-7862043", "add": "臺南市北門區永隆里港北50號", "code": "05", "name": "臺南市北門區衛生所", "id": "2341190012"}}, {"geometry": {"type": "Point", "coordinates": ["120.3047806809", "23.0343978737"]}, "type": "Feature", "properties": {"phone": "06-5905398", "add": "臺南市新化區健康路143號", "code": "05", "name": "臺南市新化區衛生所", "id": "2341060019"}}, {"geometry": {"type": "Point", "coordinates": ["120.2999222598", "23.1327645916"]}, "type": "Feature", "properties": {"phone": "06-5837035", "add": "臺南市善化區中山路200號", "code": "05", "name": "臺南市善化區衛生所", "id": "2341070015"}}, {"geometry": {"type": "Point", "coordinates": ["120.2950692213", "23.0790046092"]}, "type": "Feature", "properties": {"phone": "06-5992504", "add": "臺南市新市區中興街12號", "code": "05", "name": "臺南市新市區衛生所", "id": "2341200013"}}, {"geometry": {"type": "Point", "coordinates": ["120.3581737504", "23.0985850639"]}, "type": "Feature", "properties": {"phone": "06-5781013", "add": "臺南市山上區山上里35之2號", "code": "05", "name": "臺南市山上區衛生所", "id": "2341220015"}}, {"geometry": {"type": "Point", "coordinates": ["120.4728810402", "23.1330055188"]}, "type": "Feature", "properties": {"phone": "06-5742275", "add": "臺南市玉井區中正路5號", "code": "05", "name": "臺南市玉井區衛生所", "id": "2341230011"}}, {"geometry": {"type": "Point", "coordinates": ["120.486074", "23.174415"]}, "type": "Feature", "properties": {"phone": "06-5751006", "add": "臺南市楠西區中正路226號", "code": "05", "name": "臺南市楠西區衛生所", "id": "2341240017"}}, {"geometry": {"type": "Point", "coordinates": ["120.4790582792", "23.044391558"]}, "type": "Feature", "properties": {"phone": "06-5771139", "add": "臺南市南化區南化里226之1號", "code": "05", "name": "臺南市南化區衛生所", "id": "2341250013"}}, {"geometry": {"type": "Point", "coordinates": ["120.4099461974", "23.056308173"]}, "type": "Feature", "properties": {"phone": "06-5731114", "add": "臺南市左鎮區中正里172之15號", "code": "05", "name": "臺南市左鎮區衛生所", "id": "2341260019"}}, {"geometry": {"type": "Point", "coordinates": ["120.2514612875", "22.972778521"]}, "type": "Feature", "properties": {"phone": "06-2704153", "add": "臺南市仁德區中山路606巷2號", "code": "05", "name": "臺南市仁德區衛生所", "id": "2341270015"}}, {"geometry": {"type": "Point", "coordinates": ["120.2949911676", "22.9710613996"]}, "type": "Feature", "properties": {"phone": "06-2304030", "add": "臺南市歸仁區中正北路一段1號", "code": "05", "name": "臺南市歸仁區衛生所", "id": "2341280011"}}, {"geometry": {"type": "Point", "coordinates": ["120.3272492872", "22.9630291072"]}, "type": "Feature", "properties": {"phone": "06-5952395", "add": "臺南市關廟區中正路1000號", "code": "05", "name": "臺南市關廟區衛生所", "id": "2341290017"}}, {"geometry": {"type": "Point", "coordinates": ["120.3618235049", "22.9652128753"]}, "type": "Feature", "properties": {"phone": "06-5941397", "add": "臺南市龍崎區崎頂里新市子158號", "code": "05", "name": "臺南市龍崎區衛生所", "id": "2341300018"}}, {"geometry": {"type": "Point", "coordinates": ["120.261161891", "23.0165179095"]}, "type": "Feature", "properties": {"phone": "06-2326507", "add": "臺南市永康區文化路51號", "code": "05", "name": "臺南市永康區衛生所", "id": "2341310014"}}, {"geometry": {"type": "Point", "coordinates": ["120.2370722284", "23.1216240776"]}, "type": "Feature", "properties": {"phone": "06-5922022", "add": "臺南市安定區安定里59號之1", "code": "05", "name": "臺南市安定區衛生所", "id": "2341210019"}}, {"geometry": {"type": "Point", "coordinates": ["120.2128071212", "22.989157851"]}, "type": "Feature", "properties": {"phone": "06-2748316", "add": "臺南市東區東門路一段57號", "code": "05", "name": "臺灣基督長老教會新樓醫療財團法人臺南新樓醫院", "id": "1121010018"}}, {"geometry": {"type": "Point", "coordinates": ["120.2267434631", "22.9685352529"]}, "type": "Feature", "properties": {"phone": "06-2609926", "add": "臺南市東區崇德路670號", "code": "05", "name": "臺南市立醫院", "id": "0221010019"}}, {"geometry": {"type": "Point", "coordinates": ["120.2314498409", "22.9947526374"]}, "type": "Feature", "properties": {"phone": "06-2360513", "add": "臺南市東區東光路一段132號1樓", "code": "05", "name": "佳一家庭診所", "id": "3521013680"}}, {"geometry": {"type": "Point", "coordinates": ["120.2334451734", "22.9845798707"]}, "type": "Feature", "properties": {"phone": "06-2698925", "add": "臺南市東區中華東路二段185巷26號", "code": "05", "name": "路加小兒科診所", "id": "3521011275"}}, {"geometry": {"type": "Point", "coordinates": ["120.2267345081", "22.9933461787"]}, "type": "Feature", "properties": {"phone": "06-2008992", "add": "臺南市東區東安路100號", "code": "05", "name": "王正賜小兒科診所", "id": "3521012870"}}, {"geometry": {"type": "Point", "coordinates": ["120.2172712876", "22.9804262162"]}, "type": "Feature", "properties": {"phone": "06-2891634", "add": "臺南市東區崇明路79號", "code": "05", "name": "王肇陽皮膚科診所", "id": "3521010554"}}, {"geometry": {"type": "Point", "coordinates": ["120.227635147", "22.972679402"]}, "type": "Feature", "properties": {"phone": "06-3358868", "add": "臺南市東區崇德路579號", "code": "05", "name": "陳勃旭耳鼻喉科診所", "id": "3521013108"}}, {"geometry": {"type": "Point", "coordinates": ["120.2196540996", "22.9782718079"]}, "type": "Feature", "properties": {"phone": "06-2607698", "add": "臺南市東區崇明路195號", "code": "05", "name": "良田蔡明峻小兒科診所", "id": "3521013519"}}, {"geometry": {"type": "Point", "coordinates": ["120.2293057899", "22.9743533326"]}, "type": "Feature", "properties": {"phone": "06-3369131", "add": "臺南市東區崇善路511號", "code": "05", "name": "侯世婷小兒科診所", "id": "3521013591"}}, {"geometry": {"type": "Point", "coordinates": ["120.2264569323", "22.9920930615"]}, "type": "Feature", "properties": {"phone": "06-2362853", "add": "臺南市東區東安路50號", "code": "05", "name": "林信常診所", "id": "3521010509"}}, {"geometry": {"type": "Point", "coordinates": ["120.2126807012", "22.9902876173"]}, "type": "Feature", "properties": {"phone": "06-2748014", "add": "臺南市東區前鋒路41號", "code": "05", "name": "呂怡璋小兒科診所", "id": "3521010956"}}, {"geometry": {"type": "Point", "coordinates": ["120.2345397772", "22.9884046605"]}, "type": "Feature", "properties": {"phone": "06-2680208", "add": "臺南市東區裕農路584之2號", "code": "05", "name": "幼馨診所", "id": "3521011328"}}, {"geometry": {"type": "Point", "coordinates": ["120.2193969867", "22.9775301578"]}, "type": "Feature", "properties": {"phone": "06-2606169", "add": "臺南市東區崇明路7號", "code": "05", "name": "黃三元耳鼻喉科診所", "id": "3521010812"}}, {"geometry": {"type": "Point", "coordinates": ["120.2206487019", "22.9904919028"]}, "type": "Feature", "properties": {"phone": "06-2086360", "add": "臺南市東區長榮路二段93號", "code": "05", "name": "謝明憲內科診所", "id": "3521011097"}}, {"geometry": {"type": "Point", "coordinates": ["120.2115231779", "22.9871907499"]}, "type": "Feature", "properties": {"phone": "06-2705911", "add": "臺南市東區大同路一段69號", "code": "05", "name": "衛生福利部胸腔病院", "id": "0141270019"}}, {"geometry": {"type": "Point", "coordinates": ["120.1947655447", "22.9805623411"]}, "type": "Feature", "properties": {"phone": "06-2633011", "add": "臺南市南區夏林路172號", "code": "05", "name": "葉太原診所", "id": "3521020854"}}, {"geometry": {"type": "Point", "coordinates": ["120.1902650879", "22.9696939501"]}, "type": "Feature", "properties": {"phone": "06-2656789", "add": "臺南市南區金華路一段377號", "code": "05", "name": "林黑潮小兒科診所", "id": "3521020470"}}, {"geometry": {"type": "Point", "coordinates": ["120.2121579595", "22.9803571748"]}, "type": "Feature", "properties": {"phone": "06-2149955", "add": "臺南市南區大同路二段102號", "code": "05", "name": "王日榮耳鼻喉科診所", "id": "3521022116"}}, {"geometry": {"type": "Point", "coordinates": ["120.1975265478", "22.9745727449"]}, "type": "Feature", "properties": {"phone": "06-2636629", "add": "臺南市南區西門路一段199號", "code": "05", "name": "泰立診所", "id": "3521020916"}}, {"geometry": {"type": "Point", "coordinates": ["120.1899987269", "22.9652634855"]}, "type": "Feature", "properties": {"phone": "06-2642266", "add": "臺南市南區金華路一段160號", "code": "05", "name": "唐勳樟診所", "id": "3521020943"}}, {"geometry": {"type": "Point", "coordinates": ["120.1973447832", "22.9853170586"]}, "type": "Feature", "properties": {"phone": "06-2216216", "add": "臺南市南區西門路一段611號", "code": "05", "name": "張士澎內科家醫科診所", "id": "3521020809"}}, {"geometry": {"type": "Point", "coordinates": ["120.1912945144", "22.9812650916"]}, "type": "Feature", "properties": {"phone": "06-2915660", "add": "臺南市南區金華路二段171號", "code": "05", "name": "林大傑耳鼻喉科診所", "id": "3521020612"}}, {"geometry": {"type": "Point", "coordinates": ["120.1938052024", "22.9622082976"]}, "type": "Feature", "properties": {"phone": "06-2920909", "add": "臺南市南區中華南路二段72號", "code": "05", "name": "張祐禎家庭醫學科診所", "id": "3521020827"}}, {"geometry": {"type": "Point", "coordinates": ["120.1779365214", "22.9400854328"]}, "type": "Feature", "properties": {"phone": "06-2622143", "add": "臺南市南區喜樹路272號", "code": "05", "name": "民安診所", "id": "3521020890"}}, {"geometry": {"type": "Point", "coordinates": ["120.1934712408", "23.0055398412"]}, "type": "Feature", "properties": {"phone": "06-3507711", "add": "臺南市北區文賢路263號", "code": "05", "name": "蘇耳鼻喉科診所", "id": "3521042538"}}, {"geometry": {"type": "Point", "coordinates": ["120.2075683408", "22.9992657202"]}, "type": "Feature", "properties": {"phone": "06-2216855", "add": "臺南市北區公園路191號", "code": "05", "name": "張金石小兒科診所", "id": "3521040945"}}, {"geometry": {"type": "Point", "coordinates": ["120.2145872908", "23.016741663"]}, "type": "Feature", "properties": {"phone": "06-2833398", "add": "臺南市北區公園路703號", "code": "05", "name": "陳文峰耳鼻喉科診所", "id": "3521040838"}}, {"geometry": {"type": "Point", "coordinates": ["120.225819737", "23.0107484241"]}, "type": "Feature", "properties": {"phone": "06-2367868", "add": "臺南市北區開元路426號", "code": "05", "name": "楊宏義小兒科診所", "id": "3521040552"}}, {"geometry": {"type": "Point", "coordinates": ["120.2072879935", "22.9987664861"]}, "type": "Feature", "properties": {"phone": "06-2251179", "add": "臺南市北區公園路167號", "code": "05", "name": "惠幼小兒科診所", "id": "3521040749"}}, {"geometry": {"type": "Point", "coordinates": ["120.209922689", "23.0153542703"]}, "type": "Feature", "properties": {"phone": "06-2512789", "add": "臺南市北區西門路四段347號", "code": "05", "name": "邱聯合診所", "id": "3521040392"}}, {"geometry": {"type": "Point", "coordinates": ["120.2099632146", "23.0035195896"]}, "type": "Feature", "properties": {"phone": "06-2210423", "add": "臺南市北區公園路315之1號", "code": "05", "name": "志誠醫院", "id": "1521040050"}}, {"geometry": {"type": "Point", "coordinates": ["120.2167922144", "23.0127396881"]}, "type": "Feature", "properties": {"phone": "06-2526863", "add": "臺南市北區長榮路五段305號", "code": "05", "name": "大道診所", "id": "3521042716"}}, {"geometry": {"type": "Point", "coordinates": ["120.1958359393", "23.0102185357"]}, "type": "Feature", "properties": {"phone": "06-2584000", "add": "臺南市北區和緯路三段322號", "code": "05", "name": "德幼小兒科診所", "id": "3521042618"}}, {"geometry": {"type": "Point", "coordinates": ["120.20539491", "22.9993148819"]}, "type": "Feature", "properties": {"phone": "06-2213434", "add": "臺南市北區忠義路三段24號", "code": "05", "name": "幼之園小兒科診所", "id": "3521042805"}}, {"geometry": {"type": "Point", "coordinates": ["120.2002617405", "23.0128730485"]}, "type": "Feature", "properties": {"phone": "06-3589696", "add": "臺南市北區海安路三段761號", "code": "05", "name": "海安小兒科診所", "id": "3521042609"}}, {"geometry": {"type": "Point", "coordinates": ["120.202799064", "23.0030108711"]}, "type": "Feature", "properties": {"phone": "06-2267301", "add": "臺南市北區公園南路352號", "code": "05", "name": "林文雄小兒科診所", "id": "3521040730"}}, {"geometry": {"type": "Point", "coordinates": ["120.1936506382", "23.0133021264"]}, "type": "Feature", "properties": {"phone": "06-2502588", "add": "臺南市北區文賢路629號", "code": "05", "name": "文賢內科診所", "id": "3521042627"}}, {"geometry": {"type": "Point", "coordinates": ["120.2027513601", "23.0030282397"]}, "type": "Feature", "properties": {"phone": "06-2289333", "add": "臺南市北區公園南路356號", "code": "05", "name": "柯中文皮膚科診所", "id": "3521042430"}}, {"geometry": {"type": "Point", "coordinates": ["120.1966000083", "23.0014430712"]}, "type": "Feature", "properties": {"phone": "06-2211177", "add": "臺南市北區成功路516號", "code": "05", "name": "王克紹診所", "id": "3521040061"}}, {"geometry": {"type": "Point", "coordinates": ["120.1850951622", "23.0065567307"]}, "type": "Feature", "properties": {"phone": "06-2808288", "add": "臺南市北區和緯路五段46號1樓", "code": "05", "name": "蕭震亞診所", "id": "3521042234"}}, {"geometry": {"type": "Point", "coordinates": ["120.224436584", "23.0101648092"]}, "type": "Feature", "properties": {"phone": "06-2362201", "add": "臺南市北區開元路479號1樓", "code": "05", "name": "王克生小兒科診所", "id": "3521042494"}}, {"geometry": {"type": "Point", "coordinates": ["120.1980812054", "23.0033916916"]}, "type": "Feature", "properties": {"phone": "06-3583360", "add": "臺南市北區臨安路二段151號", "code": "05", "name": "安田耳鼻喉科診所", "id": "3521042305"}}, {"geometry": {"type": "Point", "coordinates": ["120.1930172247", "23.0178290257"]}, "type": "Feature", "properties": {"phone": "06-2507089", "add": "臺南市北區文賢路877號", "code": "05", "name": "傅耳鼻喉科診所", "id": "3521041022"}}, {"geometry": {"type": "Point", "coordinates": ["120.2208753309", "23.0049293463"]}, "type": "Feature", "properties": {"phone": "06-2374841", "add": "臺南市北區開元路95號", "code": "05", "name": "永昌診所", "id": "3505350142"}}, {"geometry": {"type": "Point", "coordinates": ["120.2150878025", "23.0095498414"]}, "type": "Feature", "properties": {"phone": "06-2522293", "add": "臺南市北區和緯路一段52號", "code": "05", "name": "曾內科診所", "id": "3521042725"}}, {"geometry": {"type": "Point", "coordinates": ["120.1938311161", "23.0148932454"]}, "type": "Feature", "properties": {"phone": "06-3583770", "add": "臺南市北區文賢路1068號", "code": "05", "name": "王界三小兒科診所", "id": "3521042216"}}, {"geometry": {"type": "Point", "coordinates": ["120.2271516092", "23.0003837065"]}, "type": "Feature", "properties": {"phone": "06-2752887", "add": "臺南市北區小東路171號", "code": "05", "name": "陳冠文內科診所（風典聯合門診）", "id": "3521041120"}}, {"geometry": {"type": "Point", "coordinates": ["120.1948673548", "23.0027069764"]}, "type": "Feature", "properties": {"phone": "06-2588740", "add": "臺南市北區成功路602號", "code": "05", "name": "芳德診所", "id": "3521040418"}}, {"geometry": {"type": "Point", "coordinates": ["120.1985037986", "22.9948623542"]}, "type": "Feature", "properties": {"phone": "06-2221111", "add": "臺南市中西區民生路二段22號", "code": "05", "name": "郭綜合醫院", "id": "1521031104"}}, {"geometry": {"type": "Point", "coordinates": ["120.2080262763", "22.9887180076"]}, "type": "Feature", "properties": {"phone": "06-2200055", "add": "臺南市中西區開山路125號", "code": "05", "name": "衛生福利部臺南醫院", "id": "0121050011"}}, {"geometry": {"type": "Point", "coordinates": ["120.2004176997", "22.9998486182"]}, "type": "Feature", "properties": {"phone": "06-2256618", "add": "臺南市中西區成功路319號", "code": "05", "name": "李朝泰小兒科診所", "id": "3521030378"}}, {"geometry": {"type": "Point", "coordinates": ["120.2062999307", "22.9980262144"]}, "type": "Feature", "properties": {"phone": "06-2245771", "add": "臺南市中西區成功路169號", "code": "05", "name": "永川醫院", "id": "1521050010"}}, {"geometry": {"type": "Point", "coordinates": ["120.2019155566", "22.993743589"]}, "type": "Feature", "properties": {"phone": "06-2262953", "add": "臺南市中西區民生路一段90號", "code": "05", "name": "郭重德診所", "id": "3521050638"}}, {"geometry": {"type": "Point", "coordinates": ["120.2086025821", "22.992136991"]}, "type": "Feature", "properties": {"phone": "06-2263931", "add": "臺南市中西區青年路119號", "code": "05", "name": "紀冠廷診所", "id": "3521052678"}}, {"geometry": {"type": "Point", "coordinates": ["120.1927430702", "22.9899049158"]}, "type": "Feature", "properties": {"phone": "06-2212257", "add": "臺南市中西區大勇街111號", "code": "05", "name": "洪敏元耳鼻喉科診所", "id": "3521030298"}}, {"geometry": {"type": "Point", "coordinates": ["120.1796479969", "23.0036426804"]}, "type": "Feature", "properties": {"phone": "06-2801561", "add": "臺南市中西區湖美街215巷9號", "code": "05", "name": "湖美耳鼻喉科診所", "id": "3521030467"}}, {"geometry": {"type": "Point", "coordinates": ["120.1921889238", "22.9896671277"]}, "type": "Feature", "properties": {"phone": "06-2211006", "add": "臺南市中西區金華路三段61號", "code": "05", "name": "康和內科診所", "id": "3505340191"}}, {"geometry": {"type": "Point", "coordinates": ["120.1968174675", "22.9984204397"]}, "type": "Feature", "properties": {"phone": "06-2295940", "add": "臺南市中西區民族路三段99號", "code": "05", "name": "陳欽富診所", "id": "3521030403"}}, {"geometry": {"type": "Point", "coordinates": ["120.1988266226", "22.9908998517"]}, "type": "Feature", "properties": {"phone": "06-2231191", "add": "臺南市中西區府前路一段304巷2號", "code": "05", "name": "永和醫院", "id": "1521051160"}}, {"geometry": {"type": "Point", "coordinates": ["120.1929840043", "22.9930650687"]}, "type": "Feature", "properties": {"phone": "06-2278899", "add": "臺南市中西區金華路三段167號", "code": "05", "name": "大安婦幼醫院", "id": "1505340019"}}, {"geometry": {"type": "Point", "coordinates": ["120.200441442", "22.9952709164"]}, "type": "Feature", "properties": {"phone": "06-2292360", "add": "臺南市中西區新美街66之1號", "code": "05", "name": "張永昌小兒科診所", "id": "3521051528"}}, {"geometry": {"type": "Point", "coordinates": ["120.2069085272", "22.9929938779"]}, "type": "Feature", "properties": {"phone": "06-2282155", "add": "臺南市中西區民權路一段261號", "code": "05", "name": "呂宗禧耳鼻喉科診所", "id": "3521031722"}}, {"geometry": {"type": "Point", "coordinates": ["120.2064656216", "22.9939429851"]}, "type": "Feature", "properties": {"phone": "06-2213257", "add": "臺南市中西區民權路二段12號", "code": "05", "name": "沈俊良診所", "id": "3521052801"}}, {"geometry": {"type": "Point", "coordinates": ["120.2231915819", "23.0642317732"]}, "type": "Feature", "properties": {"phone": "06-3553111", "add": "臺南市安南區長和路二段66號", "code": "05", "name": "臺南市立安南醫院-委託中國醫藥大學興建經營", "id": "1305370013"}}, {"geometry": {"type": "Point", "coordinates": ["120.1912582491", "23.0245936048"]}, "type": "Feature", "properties": {"phone": "06-3584688", "add": "臺南市安南區海佃路一段205號", "code": "05", "name": "董哲樑骨外科診所", "id": "3521061015"}}, {"geometry": {"type": "Point", "coordinates": ["120.1867811691", "23.0434939709"]}, "type": "Feature", "properties": {"phone": "06-2558673", "add": "臺南市安南區海佃路二段626號", "code": "05", "name": "陳本全家庭醫學科診所", "id": "3521060983"}}, {"geometry": {"type": "Point", "coordinates": ["120.2170424846", "23.0334276697"]}, "type": "Feature", "properties": {"phone": "06-2562283", "add": "臺南市安南區安和路一段166號", "code": "05", "name": "溫聯合診所", "id": "3521060634"}}, {"geometry": {"type": "Point", "coordinates": ["120.2045169414", "23.0275772573"]}, "type": "Feature", "properties": {"phone": "06-2503006", "add": "臺南市安南區北安路二段133號", "code": "05", "name": "北安診所", "id": "3521060812"}}, {"geometry": {"type": "Point", "coordinates": ["120.178932154", "22.9935891127"]}, "type": "Feature", "properties": {"phone": "06-2933358", "add": "臺南市安平區文平路438號", "code": "05", "name": "吳國堯小兒科診所", "id": "3521071520"}}, {"geometry": {"type": "Point", "coordinates": ["120.1704241994", "22.9973953953"]}, "type": "Feature", "properties": {"phone": "06-2976670", "add": "臺南市安平區慶平路559號", "code": "05", "name": "慶平美耳鼻喉科診所", "id": "3521071342"}}, {"geometry": {"type": "Point", "coordinates": ["120.1713610162", "22.9918589889"]}, "type": "Feature", "properties": {"phone": "06-2993699", "add": "臺南市安平區國平路306號", "code": "05", "name": "同心小兒科診所", "id": "3521071539"}}, {"geometry": {"type": "Point", "coordinates": ["120.1842648932", "22.9933518992"]}, "type": "Feature", "properties": {"phone": "06-2983577", "add": "臺南市安平區府前路二段616號", "code": "05", "name": "陳建霖內科診所", "id": "3521071502"}}, {"geometry": {"type": "Point", "coordinates": ["120.1660779969", "22.9915043799"]}, "type": "Feature", "properties": {"phone": "06-2950808", "add": "臺南市安平區永華路二段1059號", "code": "05", "name": "穠田聯合診所", "id": "3521070327"}}, {"geometry": {"type": "Point", "coordinates": ["120.1753018888", "22.9935107476"]}, "type": "Feature", "properties": {"phone": "06-2937711", "add": "臺南市安平區華平路501號", "code": "05", "name": "陽光小兒科診所", "id": "3521071422"}}, {"geometry": {"type": "Point", "coordinates": ["120.2218969589", "23.0206064484"]}, "type": "Feature", "properties": {"phone": "06-2812811", "add": "臺南市永康區中華路901號", "code": "05", "name": "奇美醫療財團法人奇美醫院", "id": "1141310019"}}, {"geometry": {"type": "Point", "coordinates": ["120.2403161375", "22.997217571"]}, "type": "Feature", "properties": {"phone": "06-3125101", "add": "臺南市永康區復興路427號", "code": "05", "name": "高雄榮民總醫院臺南分院", "id": "0641310018"}}, {"geometry": {"type": "Point", "coordinates": ["120.238925186", "23.0396028852"]}, "type": "Feature", "properties": {"phone": "06-2425866", "add": "臺南市永康區中正路535號", "code": "05", "name": "光田診所", "id": "3541311203"}}, {"geometry": {"type": "Point", "coordinates": ["120.2274182351", "23.0169264415"]}, "type": "Feature", "properties": {"phone": "06-3039099", "add": "臺南市永康區大橋一街57號", "code": "05", "name": "史地分小兒科診所", "id": "3541312997"}}, {"geometry": {"type": "Point", "coordinates": ["120.2568872011", "23.0269152981"]}, "type": "Feature", "properties": {"phone": "06-2310932", "add": "臺南市永康區中山路17號", "code": "05", "name": "永大診所", "id": "3541312577"}}, {"geometry": {"type": "Point", "coordinates": ["120.2666685995", "23.0079292408"]}, "type": "Feature", "properties": {"phone": "06-2724321", "add": "臺南市永康區民族路376號", "code": "05", "name": "許進賢耳鼻喉科診所", "id": "3541311098"}}, {"geometry": {"type": "Point", "coordinates": ["120.2450534154", "23.0148417599"]}, "type": "Feature", "properties": {"phone": "06-2025392", "add": "臺南市永康區復國一路469號", "code": "05", "name": "復華耳鼻喉科診所", "id": "3541312424"}}, {"geometry": {"type": "Point", "coordinates": ["120.2289543618", "23.0159273408"]}, "type": "Feature", "properties": {"phone": "06-3020188", "add": "臺南市永康區中華路675之1號", "code": "05", "name": "蔡尚均小兒科診所", "id": "3541312960"}}, {"geometry": {"type": "Point", "coordinates": ["120.2503055778", "23.0311902875"]}, "type": "Feature", "properties": {"phone": "06-2039513", "add": "臺南市永康區中正路258之2號", "code": "05", "name": "利民內科診所", "id": "3541311249"}}, {"geometry": {"type": "Point", "coordinates": ["120.2579618", "23.0261015"]}, "type": "Feature", "properties": {"phone": "06-2332400", "add": "臺南市永康區中山北路30號", "code": "05", "name": "丞康小兒科診所", "id": "3541310715"}}, {"geometry": {"type": "Point", "coordinates": ["120.251574", "23.029663"]}, "type": "Feature", "properties": {"phone": "06-2333566", "add": "臺南市永康區正強里正強街231號", "code": "05", "name": "中正耳鼻喉科診所", "id": "3541313172"}}, {"geometry": {"type": "Point", "coordinates": ["120.2760011398", "23.0196671306"]}, "type": "Feature", "properties": {"phone": "06-2719351", "add": "臺南市永康區西勢里富強路一段20號", "code": "05", "name": "仁享診所", "id": "3541311301"}}, {"geometry": {"type": "Point", "coordinates": ["120.2459782468", "23.0073610534"]}, "type": "Feature", "properties": {"phone": "06-3133996", "add": "臺南市永康區復國一路198號", "code": "05", "name": "永慶診所", "id": "3541312862"}}, {"geometry": {"type": "Point", "coordinates": ["120.1836615928", "23.1816991956"]}, "type": "Feature", "properties": {"phone": "06-7263333", "add": "臺南市佳里區興化里606號", "code": "05", "name": "奇美醫療財團法人佳里奇美醫院", "id": "1105050012"}}, {"geometry": {"type": "Point", "coordinates": ["120.3247051755", "23.2892692497"]}, "type": "Feature", "properties": {"phone": "06-6226999", "add": "臺南市柳營區太康村201號", "code": "05", "name": "奇美醫療財團法人柳營奇美醫院", "id": "1141090512"}}, {"geometry": {"type": "Point", "coordinates": ["120.2330330357", "23.1798740085"]}, "type": "Feature", "properties": {"phone": "06-5702228", "add": "臺南市麻豆區小埤里苓子林20號", "code": "05", "name": "臺灣基督長老教會新樓醫療財團法人麻豆新樓醫院", "id": "1105040016"}}, {"geometry": {"type": "Point", "coordinates": ["120.2448032016", "23.1835707135"]}, "type": "Feature", "properties": {"phone": "06-5719889", "add": "臺南市麻豆區中山路145號", "code": "05", "name": "陳信宏小兒科診所", "id": "3541041493"}}, {"geometry": {"type": "Point", "coordinates": ["120.2863283447", "23.126996277"]}, "type": "Feature", "properties": {"phone": "06-5818868", "add": "臺南市善化區三民路1之35號", "code": "05", "name": "宏科醫院", "id": "1541070045"}}, {"geometry": {"type": "Point", "coordinates": ["120.3100609276", "23.036696519"]}, "type": "Feature", "properties": {"phone": "06-5901995", "add": "臺南市新化區中山路193號1樓", "code": "05", "name": "徐小兒科診所", "id": "3541061691"}}, {"geometry": {"type": "Point", "coordinates": ["120.3030898427", "23.0356816671"]}, "type": "Feature", "properties": {"phone": "06-5908869", "add": "臺南市新化區中山路491之1號", "code": "05", "name": "陳相國聯合診所", "id": "3541060523"}}, {"geometry": {"type": "Point", "coordinates": ["120.3364076765", "23.0624912846"]}, "type": "Feature", "properties": {"phone": "06-5911929", "add": "臺南市新化區那拔里牧場72號", "code": "05", "name": "衛生福利部臺南醫院新化分院", "id": "0141060513"}}, {"geometry": {"type": "Point", "coordinates": ["120.313473", "23.309079"]}, "type": "Feature", "properties": {"phone": "06-6351131", "add": "臺南市新營區信義街73號", "code": "05", "name": "衛生福利部新營醫院", "id": "0141010013"}}, {"geometry": {"type": "Point", "coordinates": ["120.2931239456", "22.9669804242"]}, "type": "Feature", "properties": {"phone": "06-3305903", "add": "臺南市歸仁區中山路二段30號", "code": "05", "name": "洪志旺耳鼻喉科診所", "id": "3541281675"}}, {"geometry": {"type": "Point", "coordinates": ["120.3101692323", "22.6471217857"]}, "type": "Feature", "properties": {"phone": "07-3121101", "add": "高雄市三民區自由一路100號", "code": "07", "name": "財團法人私立高雄醫學大學 附設中和紀念醫院", "id": "1302050014"}}, {"geometry": {"type": "Point", "coordinates": ["120.3008316988", "22.6411558107"]}, "type": "Feature", "properties": {"phone": "07-3116281", "add": "高雄市三民區九如二路419號", "code": "07", "name": "楊英隆內兒科診所", "id": "3502050994"}}, {"geometry": {"type": "Point", "coordinates": ["120.3069873681", "22.6435395611"]}, "type": "Feature", "properties": {"phone": "07-3110420", "add": "高雄市三民區熱河一街333號", "code": "07", "name": "謝耳鼻喉科診所", "id": "3502050930"}}, {"geometry": {"type": "Point", "coordinates": ["120.3174366226", "22.6341740665"]}, "type": "Feature", "properties": {"phone": "07-2231828", "add": "高雄市三民區建國一路413之2號", "code": "07", "name": "建和耳鼻喉科診所", "id": "3502051277"}}, {"geometry": {"type": "Point", "coordinates": ["120.3031826833", "22.6368402146"]}, "type": "Feature", "properties": {"phone": "07-2360121", "add": "高雄市三民區河北一路330號", "code": "07", "name": "謝外科醫院", "id": "1502051337"}}, {"geometry": {"type": "Point", "coordinates": ["120.3050559277", "22.6502086467"]}, "type": "Feature", "properties": {"phone": "07-3225728", "add": "高雄市三民區北平一街132號", "code": "07", "name": "蔡智禮診所", "id": "3502055024"}}, {"geometry": {"type": "Point", "coordinates": ["120.2953116096", "22.6373675319"]}, "type": "Feature", "properties": {"phone": "07-2888115", "add": "高雄市三民區建國三路279號", "code": "07", "name": "陳國敏婦產科診所", "id": "3502054867"}}, {"geometry": {"type": "Point", "coordinates": ["120.3063474781", "22.6426969226"]}, "type": "Feature", "properties": {"phone": "07-3119566", "add": "高雄市三民區吉林街98號", "code": "07", "name": "何思賢家庭醫學科診所", "id": "3502050707"}}, {"geometry": {"type": "Point", "coordinates": ["120.3082443239", "22.641034382"]}, "type": "Feature", "properties": {"phone": "07-3113331", "add": "高雄市三民區九如二路162號1至2樓", "code": "07", "name": "生生不息婦產科診所", "id": "3502055444"}}, {"geometry": {"type": "Point", "coordinates": ["120.2984737", "22.6445123"]}, "type": "Feature", "properties": {"phone": "07-3112218", "add": "高雄市三民區嫩江街121號", "code": "07", "name": "朝日診所", "id": "3507320366"}}, {"geometry": {"type": "Point", "coordinates": ["120.3174587981", "22.6685458825"]}, "type": "Feature", "properties": {"phone": "07-3462802", "add": "高雄市三民區民族一路880號", "code": "07", "name": "民族醫院", "id": "1502050241"}}, {"geometry": {"type": "Point", "coordinates": ["120.3128453076", "22.6639926769"]}, "type": "Feature", "properties": {"phone": "07-3593343", "add": "高雄市三民區裕誠路108號1至2樓", "code": "07", "name": "建心診所", "id": "3502055015"}}, {"geometry": {"type": "Point", "coordinates": ["120.3167636731", "22.6403890504"]}, "type": "Feature", "properties": {"phone": "07-3867535", "add": "高雄市三民區九如一路950號", "code": "07", "name": "興中聯合診所", "id": "3502051517"}}, {"geometry": {"type": "Point", "coordinates": ["120.3236624095", "22.649291113"]}, "type": "Feature", "properties": {"phone": "07-3825669", "add": "高雄市三民區建工路449號1樓", "code": "07", "name": "天祥診所", "id": "3502055239"}}, {"geometry": {"type": "Point", "coordinates": ["120.3303300463", "22.6435573101"]}, "type": "Feature", "properties": {"phone": "07-3852378", "add": "高雄市三民區正忠路185號1樓", "code": "07", "name": "惠民診所", "id": "3502055104"}}, {"geometry": {"type": "Point", "coordinates": ["120.3072372245", "22.6449404324"]}, "type": "Feature", "properties": {"phone": "07-3222517", "add": "高雄市三民區十全一路223號1樓", "code": "07", "name": "晶品診所", "id": "3502055364"}}, {"geometry": {"type": "Point", "coordinates": ["120.2911717955", "22.6355233354"]}, "type": "Feature", "properties": {"phone": "07-2815659", "add": "高雄市三民區自強一路229號", "code": "07", "name": "順安內科兒科診所", "id": "3502050869"}}, {"geometry": {"type": "Point", "coordinates": ["120.2914823699", "22.6347209543"]}, "type": "Feature", "properties": {"phone": "07-2511241", "add": "高雄市三民區自強一路197號1樓", "code": "07", "name": "鄭榮祥診所", "id": "3502051213"}}, {"geometry": {"type": "Point", "coordinates": ["120.288696144", "22.635250496"]}, "type": "Feature", "properties": {"phone": "07-2911588", "add": "高雄市三民區建國三路503號1樓", "code": "07", "name": "傳生診所", "id": "3507320777"}}, {"geometry": {"type": "Point", "coordinates": ["120.2883680479", "22.6351045483"]}, "type": "Feature", "properties": {"phone": "07-2728025", "add": "高雄市三民區建國三路517號1樓", "code": "07", "name": "婦全婦產科診所", "id": "3502050798"}}, {"geometry": {"type": "Point", "coordinates": ["120.3023855998", "22.647511303"]}, "type": "Feature", "properties": {"phone": "07-3134133", "add": "高雄市三民區察哈爾二街19號1樓", "code": "07", "name": "後驛診所", "id": "3502055319"}}, {"geometry": {"type": "Point", "coordinates": ["120.294219857", "22.6374513104"]}, "type": "Feature", "properties": {"phone": "07-2862494", "add": "高雄市三民區建國三路144號1樓", "code": "07", "name": "進安家庭醫學科診所", "id": "3507320704"}}, {"geometry": {"type": "Point", "coordinates": ["120.2993547545", "22.6412689497"]}, "type": "Feature", "properties": {"phone": "07-3120303", "add": "高雄市三民區九如二路471號1至2樓", "code": "07", "name": "謝智新骨科診所", "id": "3507320900"}}, {"geometry": {"type": "Point", "coordinates": ["120.2863932534", "22.6381789147"]}, "type": "Feature", "properties": {"phone": "07-3160789", "add": "高雄市三民區力行路250號1樓", "code": "07", "name": "承安耳鼻喉科診所", "id": "3502054929"}}, {"geometry": {"type": "Point", "coordinates": ["120.2985350363", "22.6376705977"]}, "type": "Feature", "properties": {"phone": "07-2882101", "add": "高雄市三民區建國三路151號", "code": "07", "name": "南山醫院", "id": "1502050152"}}, {"geometry": {"type": "Point", "coordinates": ["120.2931147284", "22.6359021645"]}, "type": "Feature", "properties": {"phone": "07-2155510", "add": "高雄市三民區中華三路285號1樓", "code": "07", "name": "上仁診所", "id": "3502051491"}}, {"geometry": {"type": "Point", "coordinates": ["120.2996448354", "22.648050258"]}, "type": "Feature", "properties": {"phone": "07-3165275", "add": "高雄市三民區察哈爾二街132號B1至5樓", "code": "07", "name": "文雄醫院", "id": "1502050296"}}, {"geometry": {"type": "Point", "coordinates": ["120.2960657006", "22.6423902894"]}, "type": "Feature", "properties": {"phone": "07-3111048", "add": "高雄市三民區自立一路267號", "code": "07", "name": "曾繁英診所", "id": "3502051348"}}, {"geometry": {"type": "Point", "coordinates": ["120.3010124638", "22.639269135"]}, "type": "Feature", "properties": {"phone": "07-2866688", "add": "高雄市三民區建國三路60號", "code": "07", "name": "祐生醫院", "id": "1502050170"}}, {"geometry": {"type": "Point", "coordinates": ["120.2986250806", "22.6412894928"]}, "type": "Feature", "properties": {"phone": "07-3220066", "add": "高雄市三民區九如二路501號", "code": "07", "name": "全民醫院", "id": "1502051364"}}, {"geometry": {"type": "Point", "coordinates": ["120.3058157906", "22.6439499238"]}, "type": "Feature", "properties": {"phone": "07-3222875", "add": "高雄市三民區熱河一街370號1至2樓", "code": "07", "name": "明榮診所", "id": "3502055275"}}, {"geometry": {"type": "Point", "coordinates": ["120.3058660233", "22.6436340586"]}, "type": "Feature", "properties": {"phone": "07-3115999", "add": "高雄市三民區熱河一街365號1樓", "code": "07", "name": "樂田耳鼻喉科診所", "id": "3507320642"}}, {"geometry": {"type": "Point", "coordinates": ["120.3132053278", "22.6406673417"]}, "type": "Feature", "properties": {"phone": "07-3210981", "add": "高雄市三民區九如二路18號", "code": "07", "name": "德謙醫院", "id": "1502050045"}}, {"geometry": {"type": "Point", "coordinates": ["120.3148340139", "22.6383172221"]}, "type": "Feature", "properties": {"phone": "07-3115159", "add": "高雄市三民區民族一路51號1至4樓", "code": "07", "name": "愛仁醫療社團法人愛仁醫院", "id": "0907320012"}}, {"geometry": {"type": "Point", "coordinates": ["120.3070440564", "22.641155641"]}, "type": "Feature", "properties": {"phone": "07-3119515", "add": "高雄市三民區九如二路202號", "code": "07", "name": "高斌祥外科診所", "id": "3502050225"}}, {"geometry": {"type": "Point", "coordinates": ["120.296420483", "22.6372893771"]}, "type": "Feature", "properties": {"phone": "07-2864875", "add": "高雄市三民區自立一路99號", "code": "07", "name": "怡德耳鼻喉科診所", "id": "3502050592"}}, {"geometry": {"type": "Point", "coordinates": ["120.3256833856", "22.6530835771"]}, "type": "Feature", "properties": {"phone": "07-3895420", "add": "高雄市三民區立忠路29號1樓", "code": "07", "name": "快安診所", "id": "3502052309"}}, {"geometry": {"type": "Point", "coordinates": ["120.3248684067", "22.6545597835"]}, "type": "Feature", "properties": {"phone": "07-3832564", "add": "高雄市三民區大昌一路163號1樓", "code": "07", "name": "安昕診所", "id": "3502054321"}}, {"geometry": {"type": "Point", "coordinates": ["120.3182567515", "22.6499907281"]}, "type": "Feature", "properties": {"phone": "07-3828814", "add": "高雄市三民區莊敬路288號1至9樓", "code": "07", "name": "新高醫院", "id": "1507320015"}}, {"geometry": {"type": "Point", "coordinates": ["120.3157309663", "22.6489685201"]}, "type": "Feature", "properties": {"phone": "07-3866118", "add": "高雄市三民區鼎山街705號1樓", "code": "07", "name": "灣內診所", "id": "3507320295"}}, {"geometry": {"type": "Point", "coordinates": ["120.3179522899", "22.6499713733"]}, "type": "Feature", "properties": {"phone": "07-3865481", "add": "高雄市三民區灣中街328號1樓", "code": "07", "name": "高鳳診所", "id": "3502054652"}}, {"geometry": {"type": "Point", "coordinates": ["120.3219263989", "22.6491212347"]}, "type": "Feature", "properties": {"phone": "07-3870120", "add": "高雄市三民區建工路648號", "code": "07", "name": "陳豊源耳鼻喉科診所", "id": "3502051053"}}, {"geometry": {"type": "Point", "coordinates": ["120.3168803", "22.6510514"]}, "type": "Feature", "properties": {"phone": "07-3826946", "add": "高雄市三民區鼎山街581號", "code": "07", "name": "賴耳鼻喉科診所", "id": "3502050618"}}, {"geometry": {"type": "Point", "coordinates": ["120.316942281", "22.6507618018"]}, "type": "Feature", "properties": {"phone": "07-3824296", "add": "高雄市三民區鼎山街598號1樓", "code": "07", "name": "鼎山診所", "id": "3507320277"}}, {"geometry": {"type": "Point", "coordinates": ["120.3192510674", "22.6678129609"]}, "type": "Feature", "properties": {"phone": "07-3596393", "add": "高雄市三民區天祥一路146號1樓", "code": "07", "name": "大慶耳鼻喉科診所", "id": "3502052710"}}, {"geometry": {"type": "Point", "coordinates": ["120.3245541916", "22.6693470077"]}, "type": "Feature", "properties": {"phone": "07-3103216", "add": "高雄市三民區鼎力路339號1樓", "code": "07", "name": "曾柏彰診所", "id": "3507320688"}}, {"geometry": {"type": "Point", "coordinates": ["120.3239210921", "22.6690338164"]}, "type": "Feature", "properties": {"phone": "07-3429999", "add": "高雄市三民區鼎力路305號1樓", "code": "07", "name": "獅湖診所", "id": "3507320884"}}, {"geometry": {"type": "Point", "coordinates": ["120.3181617752", "22.6680686108"]}, "type": "Feature", "properties": {"phone": "07-3597493", "add": "高雄市三民區天祥一路200號1樓", "code": "07", "name": "蔡仁正診所", "id": "3502052756"}}, {"geometry": {"type": "Point", "coordinates": ["120.3163404704", "22.6660214975"]}, "type": "Feature", "properties": {"phone": "07-3478461", "add": "高雄市三民區民族一路537號1至2樓", "code": "07", "name": "育明診所", "id": "3502052694"}}, {"geometry": {"type": "Point", "coordinates": ["120.3148971961", "22.6600878894"]}, "type": "Feature", "properties": {"phone": "07-3490760", "add": "高雄市三民區明誠二路28號1樓", "code": "07", "name": "亮忠診所", "id": "3502052676"}}, {"geometry": {"type": "Point", "coordinates": ["120.3136808251", "22.6636801702"]}, "type": "Feature", "properties": {"phone": "07-3506789", "add": "高雄市三民區裕誠路101號1至2樓", "code": "07", "name": "醫鼎診所", "id": "3502052274"}}, {"geometry": {"type": "Point", "coordinates": ["120.3307506667", "22.6455097498"]}, "type": "Feature", "properties": {"phone": "07-3805909", "add": "高雄市三民區大豐二路154號1樓", "code": "07", "name": "振祐診所", "id": "3502052130"}}, {"geometry": {"type": "Point", "coordinates": ["120.3107246", "22.6636968"]}, "type": "Feature", "properties": {"phone": "07-3503666", "add": "高雄市三民區裕誠路125號1樓", "code": "07", "name": "捷祺家庭兒科診所", "id": "3507320044"}}, {"geometry": {"type": "Point", "coordinates": ["120.3188286658", "22.6652554194"]}, "type": "Feature", "properties": {"phone": "07-3419182", "add": "高雄市三民區金鼎路368之5號1樓", "code": "07", "name": "張氏診所", "id": "3502051311"}}, {"geometry": {"type": "Point", "coordinates": ["120.3118946388", "22.6623788053"]}, "type": "Feature", "properties": {"phone": "07-3452197", "add": "高雄市三民區河堤路318號1至2樓", "code": "07", "name": "沐康診所", "id": "3507320197"}}, {"geometry": {"type": "Point", "coordinates": ["120.3301800767", "22.6518290362"]}, "type": "Feature", "properties": {"phone": "07-3833405", "add": "高雄市三民區大昌二路544號", "code": "07", "name": "董金山診所", "id": "3502050378"}}, {"geometry": {"type": "Point", "coordinates": ["120.3311662447", "22.6509812285"]}, "type": "Feature", "properties": {"phone": "07-3802334", "add": "高雄市三民區大昌二路482號", "code": "07", "name": "黃旭瑞耳鼻喉科診所", "id": "3502051366"}}, {"geometry": {"type": "Point", "coordinates": ["120.3405002517", "22.636690698"]}, "type": "Feature", "properties": {"phone": "07-3851441", "add": "高雄市三民區九如一路135號1至3樓", "code": "07", "name": "長清診所", "id": "3502054296"}}, {"geometry": {"type": "Point", "coordinates": ["120.3323244898", "22.6441977807"]}, "type": "Feature", "properties": {"phone": "07-3973999", "add": "高雄市三民區大昌二路142號1樓", "code": "07", "name": "謝明容耳鼻喉科診所", "id": "3502054465"}}, {"geometry": {"type": "Point", "coordinates": ["120.3332744211", "22.643732117"]}, "type": "Feature", "properties": {"phone": "07-3982606", "add": "高雄市三民區義華路394號1樓", "code": "07", "name": "郭建宏小兒科診所", "id": "3507320080"}}, {"geometry": {"type": "Point", "coordinates": ["120.3217159803", "22.6596709306"]}, "type": "Feature", "properties": {"phone": "07-3800333", "add": "高雄市三民區鼎山街256號1樓", "code": "07", "name": "偉倫小兒科診所", "id": "3502055499"}}, {"geometry": {"type": "Point", "coordinates": ["120.3272846141", "22.6419551354"]}, "type": "Feature", "properties": {"phone": "07-3895640", "add": "高雄市三民區大順二路96號1樓", "code": "07", "name": "柳雱邁診所", "id": "3507320035"}}, {"geometry": {"type": "Point", "coordinates": ["120.3288505559", "22.6458296024"]}, "type": "Feature", "properties": {"phone": "07-3870430", "add": "高雄市三民區大豐二路110之1號1樓", "code": "07", "name": "羅韻珊小兒科診所", "id": "3502051642"}}, {"geometry": {"type": "Point", "coordinates": ["120.3284117883", "22.6459448315"]}, "type": "Feature", "properties": {"phone": "07-3987593", "add": "高雄市三民區大豐二路90號", "code": "07", "name": "林志哲耳鼻喉科診所", "id": "3502055453"}}, {"geometry": {"type": "Point", "coordinates": ["120.3251321563", "22.6547790773"]}, "type": "Feature", "properties": {"phone": "07-3858856", "add": "高雄市三民區大昌一路170號1樓", "code": "07", "name": "永馨診所", "id": "3502055406"}}, {"geometry": {"type": "Point", "coordinates": ["120.3448959171", "22.6443127663"]}, "type": "Feature", "properties": {"phone": "07-3811515", "add": "高雄市三民區澄和路53號", "code": "07", "name": "尤啟享診所", "id": "3502051777"}}, {"geometry": {"type": "Point", "coordinates": ["120.3429495623", "22.6462374435"]}, "type": "Feature", "properties": {"phone": "07-3959039", "add": "高雄市三民區陽明路416號1樓", "code": "07", "name": "王俊仁耳鼻喉科診所", "id": "3502052121"}}, {"geometry": {"type": "Point", "coordinates": ["120.3428898502", "22.6459030533"]}, "type": "Feature", "properties": {"phone": "07-3835551", "add": "高雄市三民區陽明路398號", "code": "07", "name": "錫謀診所", "id": "3502051419"}}, {"geometry": {"type": "Point", "coordinates": ["120.3453964936", "22.6442154665"]}, "type": "Feature", "properties": {"phone": "07-3929728", "add": "高雄市三民區澄和路27號", "code": "07", "name": "耀盛耳鼻喉科診所", "id": "3502055471"}}, {"geometry": {"type": "Point", "coordinates": ["120.3317441989", "22.6476908399"]}, "type": "Feature", "properties": {"phone": "07-3832988", "add": "高雄市三民區大昌二路305號1樓", "code": "07", "name": "呂佳群耳鼻喉科診所", "id": "3502052336"}}, {"geometry": {"type": "Point", "coordinates": ["120.3320632466", "22.6533721423"]}, "type": "Feature", "properties": {"phone": "07-3958285", "add": "高雄市三民區建工路299號1至2樓", "code": "07", "name": "蘇淑玲診所", "id": "3502052210"}}, {"geometry": {"type": "Point", "coordinates": ["120.3316132833", "22.6536592601"]}, "type": "Feature", "properties": {"phone": "07-3899900", "add": "高雄市三民區建工路302號1樓", "code": "07", "name": "崇田耳鼻喉科診所", "id": "3507320231"}}, {"geometry": {"type": "Point", "coordinates": ["120.3306697659", "22.6531857203"]}, "type": "Feature", "properties": {"phone": "07-3922289", "add": "高雄市三民區建工路332號", "code": "07", "name": "莊永昌診所", "id": "3502051544"}}, {"geometry": {"type": "Point", "coordinates": ["120.320830728", "22.6421898721"]}, "type": "Feature", "properties": {"phone": "07-3876366", "add": "高雄市三民區平等路163號1樓", "code": "07", "name": "范雅修小兒科診所", "id": "3502052498"}}, {"geometry": {"type": "Point", "coordinates": ["120.3194902142", "22.6401612664"]}, "type": "Feature", "properties": {"phone": "07-3827356", "add": "高雄市三民區九如一路820號1樓", "code": "07", "name": "胡榿小兒科診所", "id": "3502051955"}}, {"geometry": {"type": "Point", "coordinates": ["120.3187377348", "22.6402393552"]}, "type": "Feature", "properties": {"phone": "07-3890470", "add": "高雄市三民區九如一路854號1樓", "code": "07", "name": "儲昭仁耳鼻喉科診所", "id": "3502052345"}}, {"geometry": {"type": "Point", "coordinates": ["120.3258457611", "22.6437119627"]}, "type": "Feature", "properties": {"phone": "07-3865379", "add": "高雄市三民區建興路193號1至2樓", "code": "07", "name": "國安診所", "id": "3507320955"}}, {"geometry": {"type": "Point", "coordinates": ["120.327594193", "22.6410976841"]}, "type": "Feature", "properties": {"phone": "07-3927073", "add": "高雄市三民區大順二路80號1樓", "code": "07", "name": "天民泌尿科診所", "id": "3502052087"}}, {"geometry": {"type": "Point", "coordinates": ["120.3260618231", "22.6436452867"]}, "type": "Feature", "properties": {"phone": "07-3892437", "add": "高雄市三民區建興路183號1樓", "code": "07", "name": "余建興耳鼻喉科診所", "id": "3502051839"}}, {"geometry": {"type": "Point", "coordinates": ["120.3412617623", "22.6396941889"]}, "type": "Feature", "properties": {"phone": "07-3903808", "add": "高雄市三民區陽明路81號1樓", "code": "07", "name": "元成診所", "id": "3502055293"}}, {"geometry": {"type": "Point", "coordinates": ["120.3393232177", "22.6427637061"]}, "type": "Feature", "properties": {"phone": "07-3873595", "add": "高雄市三民區陽明路21號1樓", "code": "07", "name": "開元診所", "id": "3502052729"}}, {"geometry": {"type": "Point", "coordinates": ["120.343303447", "22.6387070584"]}, "type": "Feature", "properties": {"phone": "07-3945929", "add": "高雄市三民區覺民路69號1至2樓", "code": "07", "name": "真善美診所", "id": "3507320375"}}, {"geometry": {"type": "Point", "coordinates": ["120.3418360975", "22.6405794962"]}, "type": "Feature", "properties": {"phone": "07-3877918", "add": "高雄市三民區陽明路132號1樓", "code": "07", "name": "王漢卿小兒科診所", "id": "3502052292"}}, {"geometry": {"type": "Point", "coordinates": ["120.3416233121", "22.6395057097"]}, "type": "Feature", "properties": {"phone": "07-3903812", "add": "高雄市三民區陽明路68號1樓", "code": "07", "name": "禾泰診所", "id": "3502055389"}}, {"geometry": {"type": "Point", "coordinates": ["120.3154116401", "22.6467859683"]}, "type": "Feature", "properties": {"phone": "07-3812297", "add": "高雄市三民區民族巷22之2號1樓", "code": "07", "name": "和致祥診所", "id": "3502051982"}}, {"geometry": {"type": "Point", "coordinates": ["120.3221499223", "22.6467921957"]}, "type": "Feature", "properties": {"phone": "07-3867833", "add": "高雄市三民區建興路373號", "code": "07", "name": "徐樹本小兒科診所", "id": "3502051599"}}, {"geometry": {"type": "Point", "coordinates": ["120.3197297583", "22.6468542094"]}, "type": "Feature", "properties": {"phone": "07-3805686", "add": "高雄市三民區正興路167號", "code": "07", "name": "陳津甫耳鼻喉科診所", "id": "3502054750"}}, {"geometry": {"type": "Point", "coordinates": ["120.3216941629", "22.6486596759"]}, "type": "Feature", "properties": {"phone": "07-3867121", "add": "高雄市三民區建工路531號1樓", "code": "07", "name": "張殷彰診所", "id": "3502054125"}}, {"geometry": {"type": "Point", "coordinates": ["120.3216601966", "22.6486414706"]}, "type": "Feature", "properties": {"phone": "07-3867121", "add": "高雄市三民區建工路533號1樓", "code": "07", "name": "蕭瑞榮小兒科診所", "id": "3502051375"}}, {"geometry": {"type": "Point", "coordinates": ["120.3214959815", "22.6485956221"]}, "type": "Feature", "properties": {"phone": "07-3838788", "add": "高雄市三民區建工路537號1至4樓", "code": "07", "name": "建功婦產科診所", "id": "3502054429"}}, {"geometry": {"type": "Point", "coordinates": ["120.3319888169", "22.6411710135"]}, "type": "Feature", "properties": {"phone": "07-3818993", "add": "高雄市三民區大昌二路97號1樓", "code": "07", "name": "沈中章婦產科診所", "id": "3502054474"}}, {"geometry": {"type": "Point", "coordinates": ["120.3279004357", "22.6410458399"]}, "type": "Feature", "properties": {"phone": "07-3806183", "add": "高雄市三民區覺民路647號1樓", "code": "07", "name": "林正峯小兒科診所", "id": "3507320142"}}, {"geometry": {"type": "Point", "coordinates": ["120.3297770713", "22.651059724"]}, "type": "Feature", "properties": {"phone": "07-3815668", "add": "高雄市三民區大昌二路23號1樓", "code": "07", "name": "黃學武家庭醫學科診所", "id": "3502054250"}}, {"geometry": {"type": "Point", "coordinates": ["120.3220153349", "22.6576763161"]}, "type": "Feature", "properties": {"phone": "07-3909099", "add": "高雄市三民區鼎山街365號1樓", "code": "07", "name": "邱建皓耳鼻喉科診所", "id": "3502054894"}}, {"geometry": {"type": "Point", "coordinates": ["120.3231383486", "22.649476928"]}, "type": "Feature", "properties": {"phone": "07-3947605", "add": "高雄市三民區建工路608號1樓", "code": "07", "name": "黃志維耳鼻喉科診所", "id": "3502054527"}}, {"geometry": {"type": "Point", "coordinates": ["120.3201702746", "22.664783517"]}, "type": "Feature", "properties": {"phone": "07-3103130", "add": "高雄市三民區金鼎路325號1樓", "code": "07", "name": "鼎真診所", "id": "3507320526"}}, {"geometry": {"type": "Point", "coordinates": ["120.3200512069", "22.6672083858"]}, "type": "Feature", "properties": {"phone": "07-3487936", "add": "高雄市三民區天祥一路135之1號", "code": "07", "name": "吉星小兒科診所", "id": "3502052523"}}, {"geometry": {"type": "Point", "coordinates": ["120.3200512069", "22.6672083858"]}, "type": "Feature", "properties": {"phone": "07-3477086", "add": "高雄市三民區天祥一路135之1號1樓", "code": "07", "name": "鼎祥診所", "id": "3502052176"}}, {"geometry": {"type": "Point", "coordinates": ["120.3198064036", "22.6667943134"]}, "type": "Feature", "properties": {"phone": "07-3105978", "add": "高雄市三民區鼎中路396號1樓", "code": "07", "name": "祐笙診所", "id": "3507320562"}}, {"geometry": {"type": "Point", "coordinates": ["120.3413172595", "22.640041364"]}, "type": "Feature", "properties": {"phone": "07-3826598", "add": "高雄市三民區陽明路99號1樓", "code": "07", "name": "林振東耳鼻喉科診所", "id": "3507320026"}}, {"geometry": {"type": "Point", "coordinates": ["120.3402432769", "22.6395874404"]}, "type": "Feature", "properties": {"phone": "07-3833282", "add": "高雄市三民區覺民路186號", "code": "07", "name": "李坤泰診所", "id": "3502051080"}}, {"geometry": {"type": "Point", "coordinates": ["120.3399154219", "22.6416101767"]}, "type": "Feature", "properties": {"phone": "07-3966222", "add": "高雄市三民區褒揚街218號1樓", "code": "07", "name": "羅中廷診所", "id": "3507320339"}}, {"geometry": {"type": "Point", "coordinates": ["120.3220186194", "22.6652508654"]}, "type": "Feature", "properties": {"phone": "07-3493012", "add": "高雄市三民區鼎力路116號", "code": "07", "name": "名祥診所", "id": "3502051795"}}, {"geometry": {"type": "Point", "coordinates": ["120.3328786212", "22.612755476"]}, "type": "Feature", "properties": {"phone": "07-7164100", "add": "高雄市鳳山區武慶二路126號", "code": "07", "name": "健元內科診所", "id": "3542014552"}}, {"geometry": {"type": "Point", "coordinates": ["120.3511396514", "22.6417199779"]}, "type": "Feature", "properties": {"phone": "07-7778783", "add": "高雄市鳳山區青年路二段３７３號１樓", "code": "07", "name": "葉耳鼻喉科診所", "id": "3542014927"}}, {"geometry": {"type": "Point", "coordinates": ["120.3426258803", "22.6286372485"]}, "type": "Feature", "properties": {"phone": "07-7461855", "add": "高雄市鳳山區中山西路2之3號", "code": "07", "name": "國仁內科小兒科診所", "id": "3542010287"}}, {"geometry": {"type": "Point", "coordinates": ["120.3674766538", "22.6263626164"]}, "type": "Feature", "properties": {"phone": "07-7104010", "add": "高雄市鳳山區瑞竹路97號", "code": "07", "name": "趙大夫診所", "id": "3542011828"}}, {"geometry": {"type": "Point", "coordinates": ["120.3563414008", "22.6335374398"]}, "type": "Feature", "properties": {"phone": "07-7407580", "add": "高雄市鳳山區文化路47之1號1樓", "code": "07", "name": "杏康診所", "id": "3507010516"}}, {"geometry": {"type": "Point", "coordinates": ["120.3499133886", "22.6291302258"]}, "type": "Feature", "properties": {"phone": "07-7100192", "add": "高雄市鳳山區光復路一段171號", "code": "07", "name": "郭崇志診所", "id": "3542014114"}}, {"geometry": {"type": "Point", "coordinates": ["120.3514075419", "22.6415225663"]}, "type": "Feature", "properties": {"phone": "07-7677002", "add": "高雄市鳳山區青年路二段358之1號1至2樓", "code": "07", "name": "鳳山健安診所", "id": "3507010570"}}, {"geometry": {"type": "Point", "coordinates": ["120.3533502877", "22.6258119516"]}, "type": "Feature", "properties": {"phone": "07-7104397", "add": "高雄市鳳山區自由路81號", "code": "07", "name": "仁惠婦幼醫院", "id": "1542011246"}}, {"geometry": {"type": "Point", "coordinates": ["120.3550715862", "22.6180847578"]}, "type": "Feature", "properties": {"phone": "07-7401582", "add": "高雄市鳳山區五甲一路221號", "code": "07", "name": "超群診所", "id": "3542014703"}}, {"geometry": {"type": "Point", "coordinates": ["120.3731625045", "22.6236452674"]}, "type": "Feature", "properties": {"phone": "07-7021651", "add": "高雄市鳳山區仁愛路12號", "code": "07", "name": "蔡崇毅診所", "id": "3542011757"}}, {"geometry": {"type": "Point", "coordinates": ["120.3539654744", "22.6428195706"]}, "type": "Feature", "properties": {"phone": "07-7774098", "add": "高雄市鳳山區文龍東路738號1樓", "code": "07", "name": "文山長慶小兒科診所", "id": "3507010454"}}, {"geometry": {"type": "Point", "coordinates": ["120.3536720849", "22.6366717286"]}, "type": "Feature", "properties": {"phone": "07-7107010", "add": "高雄市鳳山區建國路三段157號1樓", "code": "07", "name": "文山診所", "id": "3507010114"}}, {"geometry": {"type": "Point", "coordinates": ["120.3715909076", "22.6276004691"]}, "type": "Feature", "properties": {"phone": "07-7191180", "add": "高雄市鳳山區瑞明街90巷8號1樓", "code": "07", "name": "吳萍建小兒科診所", "id": "3507010249"}}, {"geometry": {"type": "Point", "coordinates": ["120.3551473944", "22.6317391143"]}, "type": "Feature", "properties": {"phone": "07-7425003", "add": "高雄市鳳山區曹公路14號1樓", "code": "07", "name": "詹文祥耳鼻喉科診所", "id": "3507010169"}}, {"geometry": {"type": "Point", "coordinates": ["120.3615198073", "22.634564323"]}, "type": "Feature", "properties": {"phone": "07-7107302", "add": "高雄市鳳山區鳳松路61號1至3樓", "code": "07", "name": "陳茂展診所", "id": "3542011882"}}, {"geometry": {"type": "Point", "coordinates": ["120.3465128982", "22.6105684198"]}, "type": "Feature", "properties": {"phone": "07-7650908", "add": "高雄市鳳山區海洋二路39號1樓", "code": "07", "name": "孟昌診所", "id": "3507010178"}}, {"geometry": {"type": "Point", "coordinates": ["120.3268078914", "22.5917892746"]}, "type": "Feature", "properties": {"phone": "07-8119789", "add": "高雄市鳳山區五福一路6號1樓", "code": "07", "name": "詠馨診所", "id": "3507010445"}}, {"geometry": {"type": "Point", "coordinates": ["120.3363012954", "22.5980194654"]}, "type": "Feature", "properties": {"phone": "07-7215716", "add": "高雄市鳳山區五甲二路357號1樓", "code": "07", "name": "嘉佑診所", "id": "3507010623"}}, {"geometry": {"type": "Point", "coordinates": ["120.3272558762", "22.5970276345"]}, "type": "Feature", "properties": {"phone": "07-8110527", "add": "高雄市鳳山區自強二路172號1樓", "code": "07", "name": "朝仁耳鼻喉科診所", "id": "3507010374"}}, {"geometry": {"type": "Point", "coordinates": ["120.3452806518", "22.6098813048"]}, "type": "Feature", "properties": {"phone": "07-7663893", "add": "高雄市鳳山區南京路153之21號", "code": "07", "name": "鳳德診所", "id": "3542011328"}}, {"geometry": {"type": "Point", "coordinates": ["120.3591761264", "22.5933219086"]}, "type": "Feature", "properties": {"phone": "07-7962166", "add": "高雄市鳳山區鳳頂路380號", "code": "07", "name": "鳳頂診所", "id": "3542014329"}}, {"geometry": {"type": "Point", "coordinates": ["120.3260547019", "22.5913800028"]}, "type": "Feature", "properties": {"phone": "07-7689615", "add": "高雄市鳳山區五甲三路111號1樓", "code": "07", "name": "安安診所", "id": "3542014829"}}, {"geometry": {"type": "Point", "coordinates": ["120.3598828723", "22.6239171272"]}, "type": "Feature", "properties": {"phone": "07-7101995", "add": "高雄市鳳山區三民路192號", "code": "07", "name": "李梓堯耳鼻喉科診所", "id": "3542011846"}}, {"geometry": {"type": "Point", "coordinates": ["120.3481480793", "22.6383245433"]}, "type": "Feature", "properties": {"phone": "07-7809119", "add": "高雄市鳳山區文濱路7號1至2樓", "code": "07", "name": "建億診所", "id": "3507010310"}}, {"geometry": {"type": "Point", "coordinates": ["120.3572782163", "22.628928808"]}, "type": "Feature", "properties": {"phone": "07-7999128", "add": "高雄市鳳山區曹公路16之4號", "code": "07", "name": "新華田內科診所", "id": "3542014392"}}, {"geometry": {"type": "Point", "coordinates": ["120.3506682674", "22.6291143188"]}, "type": "Feature", "properties": {"phone": "07-7427329", "add": "高雄市鳳山區光復路一段139號", "code": "07", "name": "陳重志聯合診所", "id": "3542014098"}}, {"geometry": {"type": "Point", "coordinates": ["120.3622913838", "22.6255587589"]}, "type": "Feature", "properties": {"phone": "07-7419880", "add": "高雄市鳳山區光遠路260號", "code": "07", "name": "林錦浩耳鼻喉科診所", "id": "3542011471"}}, {"geometry": {"type": "Point", "coordinates": ["120.3600734588", "22.6266450874"]}, "type": "Feature", "properties": {"phone": "07-7475195", "add": "高雄市鳳山區中正路92號", "code": "07", "name": "藍傳盛診所", "id": "3542011113"}}, {"geometry": {"type": "Point", "coordinates": ["120.3525436771", "22.627032094"]}, "type": "Feature", "properties": {"phone": "07-7465265", "add": "高雄市鳳山區中山西路102之9號", "code": "07", "name": "吳外科骨科診所", "id": "3542014016"}}, {"geometry": {"type": "Point", "coordinates": ["120.3709945572", "22.6289736087"]}, "type": "Feature", "properties": {"phone": "07-7019595", "add": "高雄市鳳山區博愛路19號1樓", "code": "07", "name": "博新診所", "id": "3507010507"}}, {"geometry": {"type": "Point", "coordinates": ["120.3577993657", "22.6332806477"]}, "type": "Feature", "properties": {"phone": "07-7993009", "add": "高雄市鳳山區文化路25號1樓", "code": "07", "name": "大欣診所", "id": "3507010025"}}, {"geometry": {"type": "Point", "coordinates": ["120.3475702827", "22.62785099"]}, "type": "Feature", "properties": {"phone": "07-7196901", "add": "高雄市鳳山區中山西路277號", "code": "07", "name": "蔡耳鼻喉科診所", "id": "3542012021"}}, {"geometry": {"type": "Point", "coordinates": ["120.3626360551", "22.6198790531"]}, "type": "Feature", "properties": {"phone": "07-7194722", "add": "高雄市鳳山區王生明路133號", "code": "07", "name": "德恩診所", "id": "3542012049"}}, {"geometry": {"type": "Point", "coordinates": ["120.3443068518", "22.6289529799"]}, "type": "Feature", "properties": {"phone": "07-7422296", "add": "高雄市鳳山區澄清路97號", "code": "07", "name": "江泰興耳鼻喉科診所", "id": "3542010090"}}, {"geometry": {"type": "Point", "coordinates": ["120.3514508534", "22.6407935097"]}, "type": "Feature", "properties": {"phone": "07-7767700", "add": "高雄市鳳山區文衡路460號", "code": "07", "name": "黃榮隆診所", "id": "3542013886"}}, {"geometry": {"type": "Point", "coordinates": ["120.3514093559", "22.6405352435"]}, "type": "Feature", "properties": {"phone": "07-7769977", "add": "高雄市鳳山區文衡路377號1樓", "code": "07", "name": "祐幼小兒科診所", "id": "3542013840"}}, {"geometry": {"type": "Point", "coordinates": ["120.3550063149", "22.6402053208"]}, "type": "Feature", "properties": {"phone": "07-7768185", "add": "高雄市鳳山區文衡路344號", "code": "07", "name": "文衡診所", "id": "3542011551"}}, {"geometry": {"type": "Point", "coordinates": ["120.3608878755", "22.6263520348"]}, "type": "Feature", "properties": {"phone": "07-7424597", "add": "高雄市鳳山區民生路81號", "code": "07", "name": "高內兒科診所", "id": "3542010036"}}, {"geometry": {"type": "Point", "coordinates": ["120.3515117778", "22.6441256448"]}, "type": "Feature", "properties": {"phone": "07-7679299", "add": "高雄市鳳山區青年路二段468號", "code": "07", "name": "黃大沅小兒科診所", "id": "3542012076"}}, {"geometry": {"type": "Point", "coordinates": ["120.3502902262", "22.6410758076"]}, "type": "Feature", "properties": {"phone": "07-7775388", "add": "高雄市鳳山區文衡路480號", "code": "07", "name": "陳柏蒼耳鼻喉科診所", "id": "3542013984"}}, {"geometry": {"type": "Point", "coordinates": ["120.3620118813", "22.625358745"]}, "type": "Feature", "properties": {"phone": "07-7463762", "add": "高雄市鳳山區光遠路171之2號", "code": "07", "name": "大東醫院", "id": "1542010052"}}, {"geometry": {"type": "Point", "coordinates": ["120.351927263", "22.6342839126"]}, "type": "Feature", "properties": {"phone": "07-7902555", "add": "高雄市鳳山區文化路117號1樓", "code": "07", "name": "文華耳鼻喉科診所", "id": "3542014856"}}, {"geometry": {"type": "Point", "coordinates": ["120.3500731782", "22.6349940824"]}, "type": "Feature", "properties": {"phone": "07-7778248", "add": "高雄市鳳山區青年路二段173號", "code": "07", "name": "羅小兒科診所", "id": "3542011202"}}, {"geometry": {"type": "Point", "coordinates": ["120.3509901877", "22.6255673504"]}, "type": "Feature", "properties": {"phone": "07-7478629", "add": "高雄市鳳山區自由路189號", "code": "07", "name": "優生婦產科醫院", "id": "1542010141"}}, {"geometry": {"type": "Point", "coordinates": ["120.3447876445", "22.6292749036"]}, "type": "Feature", "properties": {"phone": "07-7475556", "add": "高雄市鳳山區光復路二段223號1樓", "code": "07", "name": "高丹榕診所", "id": "3507010650"}}, {"geometry": {"type": "Point", "coordinates": ["120.3570795372", "22.6250029742"]}, "type": "Feature", "properties": {"phone": "07-7410268", "add": "高雄市鳳山區雙慈街26號", "code": "07", "name": "台安診所", "id": "3542011211"}}, {"geometry": {"type": "Point", "coordinates": ["120.3717651569", "22.630898756"]}, "type": "Feature", "properties": {"phone": "07-7014755", "add": "高雄市鳳山區瑞興路482號1樓", "code": "07", "name": "聖壹診所", "id": "3507010678"}}, {"geometry": {"type": "Point", "coordinates": ["120.361075482", "22.625793507"]}, "type": "Feature", "properties": {"phone": "07-7464813", "add": "高雄市鳳山區光遠路298號", "code": "07", "name": "民安診所", "id": "3542014230"}}, {"geometry": {"type": "Point", "coordinates": ["120.3653121196", "22.6388125429"]}, "type": "Feature", "properties": {"phone": "07-7482227", "add": "高雄市鳳山區經武路18號", "code": "07", "name": "林誓揚診所", "id": "3542012469"}}, {"geometry": {"type": "Point", "coordinates": ["120.3630872194", "22.6285640963"]}, "type": "Feature", "properties": {"phone": "07-7418151", "add": "高雄市鳳山區經武路42號", "code": "07", "name": "高雄市立鳳山醫院 (委託長庚醫療財團法人經 營)", "id": "1142010518"}}, {"geometry": {"type": "Point", "coordinates": ["120.3611994544", "22.6255113379"]}, "type": "Feature", "properties": {"phone": "07-7451196", "add": "高雄市鳳山區光遠路189號1樓", "code": "07", "name": "正宏耳鼻喉科診所", "id": "3507010301"}}, {"geometry": {"type": "Point", "coordinates": ["120.3592140004", "22.6252585956"]}, "type": "Feature", "properties": {"phone": "07-7427925", "add": "高雄市鳳山區中正路37號", "code": "07", "name": "國民小兒科診所", "id": "3542010723"}}, {"geometry": {"type": "Point", "coordinates": ["120.3662021172", "22.6240881535"]}, "type": "Feature", "properties": {"phone": "07-7460334", "add": "高雄市鳳山區光遠路82號", "code": "07", "name": "王楩楠內兒科診所", "id": "3542010054"}}, {"geometry": {"type": "Point", "coordinates": ["120.3769862871", "22.6221781196"]}, "type": "Feature", "properties": {"phone": "07-7820958", "add": "高雄市鳳山區鳳林路258號1樓", "code": "07", "name": "吳文誌診所", "id": "3507010285"}}, {"geometry": {"type": "Point", "coordinates": ["120.353536539", "22.6401705034"]}, "type": "Feature", "properties": {"phone": "07-7805189", "add": "高雄市鳳山區文衡路301號1樓", "code": "07", "name": "文德診所", "id": "3507010150"}}, {"geometry": {"type": "Point", "coordinates": ["120.374918007", "22.6257254034"]}, "type": "Feature", "properties": {"phone": "07-7030333", "add": "高雄市鳳山區中山東路164號1樓", "code": "07", "name": "佑安耳鼻喉科診所", "id": "3507010614"}}, {"geometry": {"type": "Point", "coordinates": ["120.3586633004", "22.6090858997"]}, "type": "Feature", "properties": {"phone": "07-7556028", "add": "高雄市鳳山區誠愛路1號1樓", "code": "07", "name": "誠愛診所", "id": "3542015068"}}, {"geometry": {"type": "Point", "coordinates": ["120.3686220602", "22.6308268835"]}, "type": "Feature", "properties": {"phone": "07-7037038", "add": "高雄市鳳山區博愛路328號", "code": "07", "name": "鳳山全民診所", "id": "3542011800"}}, {"geometry": {"type": "Point", "coordinates": ["120.344943957", "22.6132614081"]}, "type": "Feature", "properties": {"phone": "07-7662525", "add": "高雄市鳳山區新富路333號", "code": "07", "name": "韓台基診所", "id": "3542011506"}}, {"geometry": {"type": "Point", "coordinates": ["120.3430480548", "22.6127116328"]}, "type": "Feature", "properties": {"phone": "07-7661910", "add": "高雄市鳳山區新富路352號", "code": "07", "name": "吳辰龍耳鼻喉科診所", "id": "3542013751"}}, {"geometry": {"type": "Point", "coordinates": ["120.3491553618", "22.6132184874"]}, "type": "Feature", "properties": {"phone": "07-7637639", "add": "高雄市鳳山區凱旋路261號", "code": "07", "name": "凱旋診所", "id": "3542011382"}}, {"geometry": {"type": "Point", "coordinates": ["120.3380043364", "22.596791719"]}, "type": "Feature", "properties": {"phone": "07-7716819", "add": "高雄市鳳山區林森路324號", "code": "07", "name": "何鴻鈞診所", "id": "3542011864"}}, {"geometry": {"type": "Point", "coordinates": ["120.3354519057", "22.5975589959"]}, "type": "Feature", "properties": {"phone": "07-7219819", "add": "高雄市鳳山區五甲二路395號", "code": "07", "name": "聖恩診所", "id": "3507010632"}}, {"geometry": {"type": "Point", "coordinates": ["120.326914831", "22.5970795771"]}, "type": "Feature", "properties": {"phone": "07-7683688", "add": "高雄市鳳山區自強二路171號", "code": "07", "name": "錦明小兒科診所", "id": "3542011364"}}, {"geometry": {"type": "Point", "coordinates": ["120.3416848666", "22.612661706"]}, "type": "Feature", "properties": {"phone": "07-7633399", "add": "高雄市鳳山區新富路282號1樓", "code": "07", "name": "林昭哲診所", "id": "3542014954"}}, {"geometry": {"type": "Point", "coordinates": ["120.3290326659", "22.5935799014"]}, "type": "Feature", "properties": {"phone": "07-8111227", "add": "高雄市鳳山區五甲二路697號", "code": "07", "name": "陳弘列內兒科診所", "id": "3542010563"}}, {"geometry": {"type": "Point", "coordinates": ["120.325113261", "22.5920327029"]}, "type": "Feature", "properties": {"phone": "07-8126000", "add": "高雄市鳳山區福祥街81號1至2樓", "code": "07", "name": "惠德醫院", "id": "1542011237"}}, {"geometry": {"type": "Point", "coordinates": ["120.3356217557", "22.5976426372"]}, "type": "Feature", "properties": {"phone": "07-7613111", "add": "高雄市鳳山區五甲二路389號", "code": "07", "name": "杏和醫院", "id": "1542011282"}}, {"geometry": {"type": "Point", "coordinates": ["120.3521517854", "22.5997021519"]}, "type": "Feature", "properties": {"phone": "07-7532687", "add": "高雄市鳳山區中崙四路12號1樓", "code": "07", "name": "上健診所", "id": "3542011962"}}, {"geometry": {"type": "Point", "coordinates": ["120.3363012954", "22.5980194654"]}, "type": "Feature", "properties": {"phone": "07-7219191", "add": "高雄市鳳山區五甲二路357號", "code": "07", "name": "佳醫診所", "id": "3542014463"}}, {"geometry": {"type": "Point", "coordinates": ["120.3375865611", "22.5995262272"]}, "type": "Feature", "properties": {"phone": "07-7276789", "add": "高雄市鳳山區五甲二路348號1樓", "code": "07", "name": "九大五甲診所", "id": "3507010187"}}, {"geometry": {"type": "Point", "coordinates": ["120.3271416738", "22.5922086167"]}, "type": "Feature", "properties": {"phone": "07-8121515", "add": "高雄市鳳山區五甲三路57號1樓", "code": "07", "name": "曾建森診所", "id": "3507010552"}}, {"geometry": {"type": "Point", "coordinates": ["120.3498993589", "22.615561644"]}, "type": "Feature", "properties": {"phone": "07-7633595", "add": "高雄市鳳山區國富路28號", "code": "07", "name": "澄明診所", "id": "3542012307"}}, {"geometry": {"type": "Point", "coordinates": ["120.3433256846", "22.6127683081"]}, "type": "Feature", "properties": {"phone": "07-7667791", "add": "高雄市鳳山區新富路362號", "code": "07", "name": "昭融耳鼻喉科診所", "id": "3542012067"}}, {"geometry": {"type": "Point", "coordinates": ["120.3359488034", "22.5967890032"]}, "type": "Feature", "properties": {"phone": "07-7132835", "add": "高雄市鳳山區文豐街36巷3號1樓", "code": "07", "name": "黃柏仁診所", "id": "3507010481"}}, {"geometry": {"type": "Point", "coordinates": ["120.3373659022", "22.5993586089"]}, "type": "Feature", "properties": {"phone": "07-7276688", "add": "高雄市鳳山區五甲二路356之1號1樓", "code": "07", "name": "黃智興診所", "id": "3542015004"}}, {"geometry": {"type": "Point", "coordinates": ["120.326614358", "22.5918686564"]}, "type": "Feature", "properties": {"phone": "07-8133897", "add": "高雄市鳳山區五甲三路79號1樓", "code": "07", "name": "仁恩診所", "id": "3507010098"}}, {"geometry": {"type": "Point", "coordinates": ["120.2986562292", "22.7078935563"]}, "type": "Feature", "properties": {"phone": "07-3615530", "add": "高雄市左營區後昌路631號1至4樓", "code": "07", "name": "黃慧光皮膚科診所", "id": "3502032183"}}, {"geometry": {"type": "Point", "coordinates": ["120.2881442", "22.6839491"]}, "type": "Feature", "properties": {"phone": "07-5812871", "add": "高雄市左營區廓後街19號", "code": "07", "name": "吳光男小兒科內科診所", "id": "3502030143"}}, {"geometry": {"type": "Point", "coordinates": ["120.3123246005", "22.6740689208"]}, "type": "Feature", "properties": {"phone": "07-3454185", "add": "高雄市左營區自由三路300號1樓", "code": "07", "name": "張簡耳鼻喉科診所", "id": "3502032110"}}, {"geometry": {"type": "Point", "coordinates": ["120.3216176848", "22.6775492758"]}, "type": "Feature", "properties": {"phone": "07-3422121", "add": "高雄市左營區大中一路386號", "code": "07", "name": "高雄榮民總醫院", "id": "0602030026"}}, {"geometry": {"type": "Point", "coordinates": ["120.3038286305", "22.6609695306"]}, "type": "Feature", "properties": {"phone": "07-5586080", "add": "高雄市左營區明誠二路541號", "code": "07", "name": "馨蕙馨醫院", "id": "1502031095"}}, {"geometry": {"type": "Point", "coordinates": ["120.304354484", "22.6597889957"]}, "type": "Feature", "properties": {"phone": "07-8629880", "add": "高雄市左營區至聖路288號1至3樓及6樓", "code": "07", "name": "彌馨診所", "id": "3507300097"}}, {"geometry": {"type": "Point", "coordinates": ["120.3034583351", "22.6568324357"]}, "type": "Feature", "properties": {"phone": "07-8628880", "add": "高雄市左營區博愛二路20號1至7樓", "code": "07", "name": "博愛蕙馨醫院", "id": "1507300022"}}, {"geometry": {"type": "Point", "coordinates": ["120.2922313216", "22.7003516496"]}, "type": "Feature", "properties": {"phone": "07-5811648", "add": "高雄市左營區軍校路553號", "code": "07", "name": "國軍高雄總醫院左營分院 附設民眾診療服務處", "id": "0502030015"}}, {"geometry": {"type": "Point", "coordinates": ["120.2886038829", "22.6815785202"]}, "type": "Feature", "properties": {"phone": "07-5819228", "add": "高雄市左營區勝利路190號", "code": "07", "name": "德仁診所", "id": "3540091159"}}, {"geometry": {"type": "Point", "coordinates": ["120.3053380818", "22.681534471"]}, "type": "Feature", "properties": {"phone": "07-3503387", "add": "高雄市左營區華夏路985號1樓", "code": "07", "name": "陳進成診所", "id": "3502032594"}}, {"geometry": {"type": "Point", "coordinates": ["120.2968346617", "22.7092853534"]}, "type": "Feature", "properties": {"phone": "07-3651536", "add": "高雄市左營區後昌路731號", "code": "07", "name": "楊耳鼻喉科診所", "id": "3502030492"}}, {"geometry": {"type": "Point", "coordinates": ["120.2971219901", "22.6706164702"]}, "type": "Feature", "properties": {"phone": "07-5533243", "add": "高雄市左營區華夏路260號1樓", "code": "07", "name": "王津勝小兒科診所", "id": "3502032638"}}, {"geometry": {"type": "Point", "coordinates": ["120.3151655413", "22.6843438083"]}, "type": "Feature", "properties": {"phone": "07-3507990", "add": "高雄市左營區文自路842號1樓", "code": "07", "name": "蘇峯民耳鼻喉科診所", "id": "3507300499"}}, {"geometry": {"type": "Point", "coordinates": ["120.2892204155", "22.6837576903"]}, "type": "Feature", "properties": {"phone": "07-5879799", "add": "高雄市左營區左營大路156號1樓", "code": "07", "name": "振亮診所", "id": "3507300391"}}, {"geometry": {"type": "Point", "coordinates": ["120.3188707132", "22.6814118924"]}, "type": "Feature", "properties": {"phone": "07-3464695", "add": "高雄市左營區民族一路901巷1號", "code": "07", "name": "德安診所", "id": "3502030821"}}, {"geometry": {"type": "Point", "coordinates": ["120.3085281875", "22.6669814252"]}, "type": "Feature", "properties": {"phone": "07-5567653", "add": "高雄市左營區富國路39號1樓", "code": "07", "name": "蔡東隆診所", "id": "3502032503"}}, {"geometry": {"type": "Point", "coordinates": ["120.2979910043", "22.6696630012"]}, "type": "Feature", "properties": {"phone": "07-5555171", "add": "高雄市左營區南屏路245號1樓", "code": "07", "name": "欣正中診所", "id": "3502032576"}}, {"geometry": {"type": "Point", "coordinates": ["120.3098463955", "22.6680328152"]}, "type": "Feature", "properties": {"phone": "07-5560618", "add": "高雄市左營區自由二路456號1樓", "code": "07", "name": "力人耳鼻喉科診所", "id": "3502031953"}}, {"geometry": {"type": "Point", "coordinates": ["120.3118646509", "22.6741981449"]}, "type": "Feature", "properties": {"phone": "07-3505726", "add": "高雄市左營區自由三路327號1樓", "code": "07", "name": "楊東穎診所", "id": "3502033573"}}, {"geometry": {"type": "Point", "coordinates": ["120.2983639203", "22.6732679544"]}, "type": "Feature", "properties": {"phone": "07-3502766", "add": "高雄市左營區華夏路395號1樓", "code": "07", "name": "宜家診所", "id": "3507300444"}}, {"geometry": {"type": "Point", "coordinates": ["120.3127593238", "22.675615082"]}, "type": "Feature", "properties": {"phone": "07-3591963", "add": "高雄市左營區自由三路410號1樓", "code": "07", "name": "九大自由診所", "id": "3507300453"}}, {"geometry": {"type": "Point", "coordinates": ["120.2881944637", "22.6824617276"]}, "type": "Feature", "properties": {"phone": "07-5826811", "add": "高雄市左營區左營大路85號", "code": "07", "name": "胡義祥內兒科診所", "id": "3502030189"}}, {"geometry": {"type": "Point", "coordinates": ["120.2967108751", "22.6699373526"]}, "type": "Feature", "properties": {"phone": "07-5529843", "add": "高雄市左營區華夏路228號1樓", "code": "07", "name": "金仁福診所", "id": "3502032192"}}, {"geometry": {"type": "Point", "coordinates": ["120.3072275807", "22.6612502232"]}, "type": "Feature", "properties": {"phone": "07-5591007", "add": "高雄市左營區明誠二路362號1樓", "code": "07", "name": "楊宜璋耳鼻喉科診所", "id": "3502030723"}}, {"geometry": {"type": "Point", "coordinates": ["120.3088830764", "22.6652913214"]}, "type": "Feature", "properties": {"phone": "07-5583277", "add": "高雄市左營區自由二路320號1樓", "code": "07", "name": "裕興診所", "id": "3502032129"}}, {"geometry": {"type": "Point", "coordinates": ["120.312590451", "22.6749812965"]}, "type": "Feature", "properties": {"phone": "07-3453356", "add": "高雄市左營區自由三路382號1樓", "code": "07", "name": "康澤小兒科診所", "id": "3502032790"}}, {"geometry": {"type": "Point", "coordinates": ["120.3156012849", "22.6855973402"]}, "type": "Feature", "properties": {"phone": "07-3482323", "add": "高雄市左營區重愛路218號1樓", "code": "07", "name": "福山診所", "id": "3502033297"}}, {"geometry": {"type": "Point", "coordinates": ["120.2879457844", "22.6694561048"]}, "type": "Feature", "properties": {"phone": "07-5851778", "add": "高雄市左營區中華一路5號1樓", "code": "07", "name": "沈嘉充診所", "id": "3502030750"}}, {"geometry": {"type": "Point", "coordinates": ["120.3073055603", "22.6668587505"]}, "type": "Feature", "properties": {"phone": "07-5560925", "add": "高雄市左營區富國路355號1樓", "code": "07", "name": "富誠診所", "id": "3502033420"}}, {"geometry": {"type": "Point", "coordinates": ["120.3082406408", "22.6624721839"]}, "type": "Feature", "properties": {"phone": "07-5592289", "add": "高雄市左營區自由二路255號1樓", "code": "07", "name": "黃昭文診所", "id": "3502030643"}}, {"geometry": {"type": "Point", "coordinates": ["120.3039226988", "22.6779848629"]}, "type": "Feature", "properties": {"phone": "07-3439801", "add": "高雄市左營區孟子路608號", "code": "07", "name": "賴孟德診所", "id": "3507300186"}}, {"geometry": {"type": "Point", "coordinates": ["120.2883626891", "22.6826792147"]}, "type": "Feature", "properties": {"phone": "07-5816899", "add": "高雄市左營區左營大路95號", "code": "07", "name": "加安耳鼻喉科診所", "id": "3502030554"}}, {"geometry": {"type": "Point", "coordinates": ["120.3206437768", "22.6817034219"]}, "type": "Feature", "properties": {"phone": "07-3508893", "add": "高雄市左營區榮佑路41號1樓", "code": "07", "name": "晨田耳鼻喉科診所", "id": "3502032781"}}, {"geometry": {"type": "Point", "coordinates": ["120.3112937005", "22.6817652282"]}, "type": "Feature", "properties": {"phone": "07-3500980", "add": "高雄市左營區博愛四路80號1樓", "code": "07", "name": "宗禾診所", "id": "3507300748"}}, {"geometry": {"type": "Point", "coordinates": ["120.2892194958", "22.6705003784"]}, "type": "Feature", "properties": {"phone": "07-5832348", "add": "高雄市左營區果峰街2巷3號1樓", "code": "07", "name": "馬遠成診所", "id": "3502030385"}}, {"geometry": {"type": "Point", "coordinates": ["120.3181172879", "22.6818331433"]}, "type": "Feature", "properties": {"phone": "07-3506203", "add": "高雄市左營區文慈路150號1樓", "code": "07", "name": "國聖診所", "id": "3502030947"}}, {"geometry": {"type": "Point", "coordinates": ["120.3054559611", "22.6658212334"]}, "type": "Feature", "properties": {"phone": "07-5584717", "add": "高雄市左營區裕誠路424號1樓", "code": "07", "name": "謝宗哲耳鼻喉科診所", "id": "3502032334"}}, {"geometry": {"type": "Point", "coordinates": ["120.3020741709", "22.6781879073"]}, "type": "Feature", "properties": {"phone": "07-3439190", "add": "高雄市左營區華夏路703號1樓", "code": "07", "name": "薛智峰耳鼻喉科診所", "id": "3502032432"}}, {"geometry": {"type": "Point", "coordinates": ["120.3165789088", "22.6849151615"]}, "type": "Feature", "properties": {"phone": "07-3451966", "add": "高雄市左營區自由四路324號1樓", "code": "07", "name": "恩欣小兒科診所", "id": "3502033082"}}, {"geometry": {"type": "Point", "coordinates": ["120.2904761147", "22.6861835204"]}, "type": "Feature", "properties": {"phone": "07-5821864", "add": "高雄市左營區左營大路253號1樓", "code": "07", "name": "長安診所", "id": "3502030616"}}, {"geometry": {"type": "Point", "coordinates": ["120.307113612", "22.6630726092"]}, "type": "Feature", "properties": {"phone": "07-5590256", "add": "高雄市左營區明華一路156號1樓", "code": "07", "name": "陳信旭小兒科診所", "id": "3502033329"}}, {"geometry": {"type": "Point", "coordinates": ["120.3121292348", "22.6772650354"]}, "type": "Feature", "properties": {"phone": "07-3454784", "add": "高雄市左營區文莊路53號", "code": "07", "name": "李凱斌小兒科診所", "id": "3502032227"}}, {"geometry": {"type": "Point", "coordinates": ["120.3135918464", "22.6783809281"]}, "type": "Feature", "properties": {"phone": "07-3450696", "add": "高雄市左營區自由三路528號1樓", "code": "07", "name": "李全忠診所", "id": "3502032889"}}, {"geometry": {"type": "Point", "coordinates": ["120.3088076", "22.6841824"]}, "type": "Feature", "properties": {"phone": "07-3491100", "add": "高雄市左營區華夏路1141號", "code": "07", "name": "王欽程診所", "id": "3502032316"}}, {"geometry": {"type": "Point", "coordinates": ["120.3091594801", "22.6646993256"]}, "type": "Feature", "properties": {"phone": "07-5587919", "add": "高雄市左營區裕誠路265號", "code": "07", "name": "傳家家庭醫學科診所", "id": "3502030474"}}, {"geometry": {"type": "Point", "coordinates": ["120.3112548331", "22.6691515371"]}, "type": "Feature", "properties": {"phone": "07-3491349", "add": "高雄市左營區文德路2號", "code": "07", "name": "陳進祥診所", "id": "3502030803"}}, {"geometry": {"type": "Point", "coordinates": ["120.3137159404", "22.6685660422"]}, "type": "Feature", "properties": {"phone": "07-5567377", "add": "高雄市左營區天祥二路105號1樓", "code": "07", "name": "江春木診所", "id": "3502030170"}}, {"geometry": {"type": "Point", "coordinates": ["120.3040496062", "22.6703321635"]}, "type": "Feature", "properties": {"phone": "07-3488226", "add": "高雄市左營區新庄仔路179之6號2樓", "code": "07", "name": "中心小兒科診所", "id": "3502033000"}}, {"geometry": {"type": "Point", "coordinates": ["120.2994816199", "22.7077268753"]}, "type": "Feature", "properties": {"phone": "07-3637880", "add": "高雄市左營區後昌路603號1樓", "code": "07", "name": "詠康診所", "id": "3507300604"}}, {"geometry": {"type": "Point", "coordinates": ["120.3085221188", "22.6639927833"]}, "type": "Feature", "properties": {"phone": "07-5507919", "add": "高雄市左營區自由二路226號1樓", "code": "07", "name": "鄭倩寧家醫科診所", "id": "3502033064"}}, {"geometry": {"type": "Point", "coordinates": ["120.307052262", "22.6665155009"]}, "type": "Feature", "properties": {"phone": "07-5509691", "add": "高雄市左營區富國路343號", "code": "07", "name": "廖耳鼻喉科診所", "id": "3502033180"}}, {"geometry": {"type": "Point", "coordinates": ["120.3125035781", "22.6801925517"]}, "type": "Feature", "properties": {"phone": "07-3501366", "add": "高雄市左營區大中二路238號1樓", "code": "07", "name": "雙子星小兒科診所", "id": "3502033519"}}, {"geometry": {"type": "Point", "coordinates": ["120.3078437898", "22.6654470907"]}, "type": "Feature", "properties": {"phone": "07-5508997", "add": "高雄市左營區裕誠路336號1至2樓", "code": "07", "name": "誠安診所", "id": "3507300739"}}, {"geometry": {"type": "Point", "coordinates": ["120.3074448041", "22.6571240355"]}, "type": "Feature", "properties": {"phone": "07-5580165", "add": "高雄市左營區大順一路264號1樓", "code": "07", "name": "宸華診所", "id": "3507300613"}}, {"geometry": {"type": "Point", "coordinates": ["120.2995203513", "22.7077069744"]}, "type": "Feature", "properties": {"phone": "07-3661818", "add": "高雄市左營區後昌路601號", "code": "07", "name": "蔡鶴峰診所", "id": "3502030483"}}, {"geometry": {"type": "Point", "coordinates": ["120.2898475821", "22.6721287164"]}, "type": "Feature", "properties": {"phone": "07-5811746", "add": "高雄市左營區翠峰路32號1樓", "code": "07", "name": "嚴世安診所", "id": "3502030849"}}, {"geometry": {"type": "Point", "coordinates": ["120.2895677747", "22.6724164655"]}, "type": "Feature", "properties": {"phone": "07-5810757", "add": "高雄市左營區翠華路601巷75號1樓", "code": "07", "name": "吉祥診所", "id": "3502032656"}}, {"geometry": {"type": "Point", "coordinates": ["120.3022397707", "22.6778245852"]}, "type": "Feature", "properties": {"phone": "07-3453961", "add": "高雄市左營區華夏路708號1樓", "code": "07", "name": "華夏診所", "id": "3502032325"}}, {"geometry": {"type": "Point", "coordinates": ["120.3002396687", "22.6772226418"]}, "type": "Feature", "properties": {"phone": "07-3432641", "add": "高雄市左營區政德路230號", "code": "07", "name": "田源診所", "id": "3502030036"}}, {"geometry": {"type": "Point", "coordinates": ["120.3047477643", "22.6752554492"]}, "type": "Feature", "properties": {"phone": "07-3498018", "add": "高雄市左營區崇德路238號1樓", "code": "07", "name": "李建中診所", "id": "3502030876"}}, {"geometry": {"type": "Point", "coordinates": ["120.3076840013", "22.6755001039"]}, "type": "Feature", "properties": {"phone": "07-3498118", "add": "高雄市左營區孟子路415號1樓", "code": "07", "name": "永霖小兒科診所", "id": "3502033304"}}, {"geometry": {"type": "Point", "coordinates": ["120.3260527648", "22.6331718808"]}, "type": "Feature", "properties": {"phone": "07-7215153", "add": "高雄市苓雅區大順三路172號", "code": "07", "name": "邱靖媛小兒專科診所", "id": "3502083395"}}, {"geometry": {"type": "Point", "coordinates": ["120.3172967655", "22.6189201843"]}, "type": "Feature", "properties": {"phone": "07-3383099", "add": "高雄市苓雅區光華一路25號", "code": "07", "name": "小貝貝小兒科診所", "id": "3502081882"}}, {"geometry": {"type": "Point", "coordinates": ["120.3106200339", "22.6162546479"]}, "type": "Feature", "properties": {"phone": "07-3308365", "add": "高雄市苓雅區三多三路124號1樓", "code": "07", "name": "黃寶慧婦產科診所", "id": "3502084034"}}, {"geometry": {"type": "Point", "coordinates": ["120.3317361836", "22.6227467819"]}, "type": "Feature", "properties": {"phone": "07-7515169", "add": "高雄市苓雅區三多一路173號1樓", "code": "07", "name": "吉利診所", "id": "3502083591"}}, {"geometry": {"type": "Point", "coordinates": ["120.3256947961", "22.6275621497"]}, "type": "Feature", "properties": {"phone": "07-7616363", "add": "高雄市苓雅區河北路154號", "code": "07", "name": "芳生內兒科診所", "id": "3502080134"}}, {"geometry": {"type": "Point", "coordinates": ["120.3114063905", "22.616772783"]}, "type": "Feature", "properties": {"phone": "07-3332866", "add": "高雄市苓雅區復興二路1號", "code": "07", "name": "康和耳鼻喉科診所", "id": "3507350140"}}, {"geometry": {"type": "Point", "coordinates": ["120.2993216154", "22.6166137244"]}, "type": "Feature", "properties": {"phone": "07-3346988", "add": "高雄市苓雅區永昌街22號", "code": "07", "name": "仁和診所", "id": "3502081775"}}, {"geometry": {"type": "Point", "coordinates": ["120.3096334417", "22.6215048612"]}, "type": "Feature", "properties": {"phone": "07-3340225", "add": "高雄市苓雅區復興二路71號", "code": "07", "name": "許耳鼻喉科診所", "id": "3502080036"}}, {"geometry": {"type": "Point", "coordinates": ["120.301927861", "22.6154173833"]}, "type": "Feature", "properties": {"phone": "07-3312686", "add": "高雄市苓雅區興中二路12號", "code": "07", "name": "盛田婦產科診所", "id": "3502080401"}}, {"geometry": {"type": "Point", "coordinates": ["120.3168745381", "22.6187287401"]}, "type": "Feature", "properties": {"phone": "07-3352297", "add": "高雄市苓雅區福建街14號1樓", "code": "07", "name": "劉可威診所", "id": "3502084294"}}, {"geometry": {"type": "Point", "coordinates": ["120.3253900775", "22.6142130899"]}, "type": "Feature", "properties": {"phone": "07-7153909", "add": "高雄市苓雅區英明路118號", "code": "07", "name": "潘漢嘉診所", "id": "3502081579"}}, {"geometry": {"type": "Point", "coordinates": ["120.3330962592", "22.6342578951"]}, "type": "Feature", "properties": {"phone": "07-7156166", "add": "高雄市苓雅區輔仁路116號", "code": "07", "name": "鎮安診所", "id": "3502081846"}}, {"geometry": {"type": "Point", "coordinates": ["120.2989504061", "22.6153101156"]}, "type": "Feature", "properties": {"phone": "07-3343467", "add": "高雄市苓雅區四維四路65號", "code": "07", "name": "榮安內兒科", "id": "3502080385"}}, {"geometry": {"type": "Point", "coordinates": ["120.3188061854", "22.6184027918"]}, "type": "Feature", "properties": {"phone": "07-7250147", "add": "高雄市苓雅區三多二路317號1至2樓", "code": "07", "name": "莘雅皮膚科診所", "id": "3502083420"}}, {"geometry": {"type": "Point", "coordinates": ["120.315829145", "22.624368645"]}, "type": "Feature", "properties": {"phone": "07-7234526", "add": "高雄市苓雅區青年一路1之17號", "code": "07", "name": "吳玉衡小兒科診所", "id": "3502083626"}}, {"geometry": {"type": "Point", "coordinates": ["120.3285859827", "22.6216665674"]}, "type": "Feature", "properties": {"phone": "07-7517221", "add": "高雄市苓雅區三多一路327號", "code": "07", "name": "陳清裕小兒科診所", "id": "3502081499"}}, {"geometry": {"type": "Point", "coordinates": ["120.318057014", "22.6182280269"]}, "type": "Feature", "properties": {"phone": "07-7255167", "add": "高雄市苓雅區三多二路353號", "code": "07", "name": "安田婦產科診所", "id": "3502080214"}}, {"geometry": {"type": "Point", "coordinates": ["120.3309468972", "22.622409352"]}, "type": "Feature", "properties": {"phone": "07-7273738", "add": "高雄市苓雅區三多一路205號", "code": "07", "name": "懷恩婦產專科醫院", "id": "3502083377"}}, {"geometry": {"type": "Point", "coordinates": ["120.3178176074", "22.6322791849"]}, "type": "Feature", "properties": {"phone": "07-2240668", "add": "高雄市苓雅區六合路52號", "code": "07", "name": "徐貴勝診所", "id": "3502080303"}}, {"geometry": {"type": "Point", "coordinates": ["120.3059210746", "22.6146448385"]}, "type": "Feature", "properties": {"phone": "07-3349010", "add": "高雄市苓雅區三多三路238號", "code": "07", "name": "楊朝欽內科診所", "id": "3502081980"}}, {"geometry": {"type": "Point", "coordinates": ["120.3085138573", "22.6191987244"]}, "type": "Feature", "properties": {"phone": "07-3328678", "add": "高雄市苓雅區忠孝二路54號", "code": "07", "name": "黃守智小兒科診所", "id": "3502082012"}}, {"geometry": {"type": "Point", "coordinates": ["120.3237362117", "22.6264908676"]}, "type": "Feature", "properties": {"phone": "07-7511131", "add": "高雄市苓雅區凱旋二路134號", "code": "07", "name": "高雄市立民生醫院", "id": "0102080017"}}, {"geometry": {"type": "Point", "coordinates": ["120.2964205076", "22.6139691709"]}, "type": "Feature", "properties": {"phone": "07-3321111", "add": "高雄市苓雅區華新街86號", "code": "07", "name": "信義醫療財團法人 高雄基督教醫院", "id": "1202080029"}}, {"geometry": {"type": "Point", "coordinates": ["120.331859826", "22.6205076122"]}, "type": "Feature", "properties": {"phone": "07-7210983", "add": "高雄市苓雅區武慶三路98號", "code": "07", "name": "童春診所", "id": "3502083546"}}, {"geometry": {"type": "Point", "coordinates": ["120.3313273497", "22.6322727605"]}, "type": "Feature", "properties": {"phone": "07-7256515", "add": "高雄市苓雅區建國一路122號", "code": "07", "name": "林勁甫耳鼻喉科診所", "id": "3502081364"}}, {"geometry": {"type": "Point", "coordinates": ["120.3107967631", "22.6163186224"]}, "type": "Feature", "properties": {"phone": "07-3352777", "add": "高雄市苓雅區三多三路112之1號1樓", "code": "07", "name": "曾政峰耳鼻喉科診所", "id": "3502084356"}}, {"geometry": {"type": "Point", "coordinates": ["120.3330263729", "22.631394787"]}, "type": "Feature", "properties": {"phone": "07-7511156", "add": "高雄市苓雅區建國一路115號之5", "code": "07", "name": "一誠診所", "id": "3502084150"}}, {"geometry": {"type": "Point", "coordinates": ["120.3404295773", "22.632734839"]}, "type": "Feature", "properties": {"phone": "07-7494202", "add": "高雄市苓雅區正義路235號", "code": "07", "name": "林仁崇診所", "id": "3502080018"}}, {"geometry": {"type": "Point", "coordinates": ["120.3171427208", "22.6215565716"]}, "type": "Feature", "properties": {"phone": "07-7253460", "add": "高雄市苓雅區四維二路247號", "code": "07", "name": "王勇智耳鼻喉科", "id": "3502081908"}}, {"geometry": {"type": "Point", "coordinates": ["120.3103717955", "22.6174637317"]}, "type": "Feature", "properties": {"phone": "07-3348118", "add": "高雄市苓雅區興中一路259號", "code": "07", "name": "羅吉雄內外科診所", "id": "3502080787"}}, {"geometry": {"type": "Point", "coordinates": ["120.3246568423", "22.6329312143"]}, "type": "Feature", "properties": {"phone": "07-2231118", "add": "高雄市苓雅區建國一路336號", "code": "07", "name": "邱康程內科診所", "id": "3507350097"}}, {"geometry": {"type": "Point", "coordinates": ["120.3227823624", "22.6157464237"]}, "type": "Feature", "properties": {"phone": "07-7213916", "add": "高雄市苓雅區和平二路316號", "code": "07", "name": "許國泰診所", "id": "3502081944"}}, {"geometry": {"type": "Point", "coordinates": ["120.3244746337", "22.6240078546"]}, "type": "Feature", "properties": {"phone": "07-7130822", "add": "高雄市苓雅區四維一路157號", "code": "07", "name": "展穎診所", "id": "3502084374"}}, {"geometry": {"type": "Point", "coordinates": ["120.3157671071", "22.624323226"]}, "type": "Feature", "properties": {"phone": "07-7235923", "add": "高雄市苓雅區青年一路1之18號1樓", "code": "07", "name": "陳世琛小兒科診所", "id": "3502080250"}}, {"geometry": {"type": "Point", "coordinates": ["120.3218989415", "22.621341903"]}, "type": "Feature", "properties": {"phone": "07-7514306", "add": "高雄市苓雅區五權街106號", "code": "07", "name": "劉春田內兒科診所", "id": "3502080796"}}, {"geometry": {"type": "Point", "coordinates": ["120.2968967553", "22.6157165698"]}, "type": "Feature", "properties": {"phone": "07-3314071", "add": "高雄市苓雅區成功一路155號", "code": "07", "name": "張清雲內科小兒科診所", "id": "3502080107"}}, {"geometry": {"type": "Point", "coordinates": ["120.3332397807", "22.6313234249"]}, "type": "Feature", "properties": {"phone": "07-7229860", "add": "高雄市苓雅區建國一路113之2號1樓", "code": "07", "name": "新鴻遠診所", "id": "3507350211"}}, {"geometry": {"type": "Point", "coordinates": ["120.3171297997", "22.6330619558"]}, "type": "Feature", "properties": {"phone": "07-2254639", "add": "高雄市苓雅區和平一路280號", "code": "07", "name": "許健聰診所", "id": "3502081766"}}, {"geometry": {"type": "Point", "coordinates": ["120.3161039658", "22.6221030437"]}, "type": "Feature", "properties": {"phone": "07-5352200", "add": "高雄市苓雅區光華一路145號", "code": "07", "name": "永康診所", "id": "3501194657"}}, {"geometry": {"type": "Point", "coordinates": ["120.3080093919", "22.6181399318"]}, "type": "Feature", "properties": {"phone": "07-5361100", "add": "高雄市苓雅區四維三路121之3號1樓", "code": "07", "name": "宗天一皮膚科診所", "id": "3502084267"}}, {"geometry": {"type": "Point", "coordinates": ["120.3165776607", "22.6187636021"]}, "type": "Feature", "properties": {"phone": "07-3344637", "add": "高雄市苓雅區福建街25號", "code": "07", "name": "健維診所", "id": "3502081793"}}, {"geometry": {"type": "Point", "coordinates": ["120.3322194462", "22.6300638824"]}, "type": "Feature", "properties": {"phone": "07-7168385", "add": "高雄市苓雅區武廟路30號1樓", "code": "07", "name": "信君耳鼻喉科診所", "id": "3502084230"}}, {"geometry": {"type": "Point", "coordinates": ["120.3198562573", "22.6187142913"]}, "type": "Feature", "properties": {"phone": "07-7614892", "add": "高雄市苓雅區三多二路283號", "code": "07", "name": "吳國松心臟科診所", "id": "3502080670"}}, {"geometry": {"type": "Point", "coordinates": ["120.323927225", "22.6331177959"]}, "type": "Feature", "properties": {"phone": "07-2238153", "add": "高雄市苓雅區建國一路352號", "code": "07", "name": "天主教聖功醫療財團法人 聖功醫院", "id": "1107350015"}}, {"geometry": {"type": "Point", "coordinates": ["120.3378387203", "22.6311076374"]}, "type": "Feature", "properties": {"phone": "07-7492636", "add": "高雄市苓雅區建國一路15之1號1至2樓", "code": "07", "name": "劉永豐診所", "id": "3502082209"}}, {"geometry": {"type": "Point", "coordinates": ["120.3394131529", "22.6308431883"]}, "type": "Feature", "properties": {"phone": "07-7497077", "add": "高雄市苓雅區正義路136號3至5樓", "code": "07", "name": "愛欣診所", "id": "3502083877"}}, {"geometry": {"type": "Point", "coordinates": ["120.2962192763", "22.6161832141"]}, "type": "Feature", "properties": {"phone": "07-3338336", "add": "高雄市苓雅區苓雅二路199號", "code": "07", "name": "光田診所", "id": "3502081515"}}, {"geometry": {"type": "Point", "coordinates": ["120.3317287905", "22.6214553207"]}, "type": "Feature", "properties": {"phone": "07-7133284", "add": "高雄市苓雅區武慶三路144號", "code": "07", "name": "徐獨立診所", "id": "3502080929"}}, {"geometry": {"type": "Point", "coordinates": ["120.3278466469", "22.6314002954"]}, "type": "Feature", "properties": {"phone": "07-7222634", "add": "高雄市苓雅區福德二路47號", "code": "07", "name": "許桂庭外科診所", "id": "3502080732"}}, {"geometry": {"type": "Point", "coordinates": ["120.3323684168", "22.6344806465"]}, "type": "Feature", "properties": {"phone": "07-7221409", "add": "高雄市苓雅區輔仁路148號1樓", "code": "07", "name": "顏小兒科診所", "id": "3502084169"}}, {"geometry": {"type": "Point", "coordinates": ["120.3323478", "22.6231644"]}, "type": "Feature", "properties": {"phone": "07-7614545", "add": "高雄市苓雅區三多一路139號", "code": "07", "name": "五塊厝診所", "id": "3502080011"}}, {"geometry": {"type": "Point", "coordinates": ["120.3196216347", "22.622714017"]}, "type": "Feature", "properties": {"phone": "07-7511779", "add": "高雄市苓雅區四維二路94之18號1樓", "code": "07", "name": "宇安診所", "id": "3507350060"}}, {"geometry": {"type": "Point", "coordinates": ["120.3262847514", "22.6330825441"]}, "type": "Feature", "properties": {"phone": "07-7275889", "add": "高雄市苓雅區建國一路286號1樓", "code": "07", "name": "黃武雄診所", "id": "3502084472"}}, {"geometry": {"type": "Point", "coordinates": ["120.3190660729", "22.6225310449"]}, "type": "Feature", "properties": {"phone": "07-7174989", "add": "高雄市苓雅區四維二路96之4號", "code": "07", "name": "麗水診所", "id": "3502083715"}}, {"geometry": {"type": "Point", "coordinates": ["120.3420268365", "22.6270518663"]}, "type": "Feature", "properties": {"phone": "07-7496751", "add": "高雄市苓雅區建軍路5號", "code": "07", "name": "國軍高雄總醫院 附設民眾診療服務處", "id": "0502080015"}}, {"geometry": {"type": "Point", "coordinates": ["120.3149920758", "22.6262254562"]}, "type": "Feature", "properties": {"phone": "07-2241595", "add": "高雄市苓雅區光華一路148之95號", "code": "07", "name": "泰順聯合診所", "id": "3502081659"}}, {"geometry": {"type": "Point", "coordinates": ["120.3256670342", "22.6206714018"]}, "type": "Feature", "properties": {"phone": "07-7218972", "add": "高雄市苓雅區三多二路81號", "code": "07", "name": "曾惠仁耳鼻喉科診所", "id": "3502081917"}}, {"geometry": {"type": "Point", "coordinates": ["120.3197660894", "22.6234100127"]}, "type": "Feature", "properties": {"phone": "07-7238382", "add": "高雄市苓雅區林泉街19號", "code": "07", "name": "蔡小兒科診所", "id": "3517030575"}}, {"geometry": {"type": "Point", "coordinates": ["120.3314183344", "22.6214811226"]}, "type": "Feature", "properties": {"phone": "07-7611286", "add": "高雄市苓雅區武慶三路89號", "code": "07", "name": "林文樹小兒科內科診所", "id": "3502080027"}}, {"geometry": {"type": "Point", "coordinates": ["120.3190121428", "22.6188552129"]}, "type": "Feature", "properties": {"phone": "07-7613151", "add": "高雄市苓雅區三多二路226號B1至5樓", "code": "07", "name": "乃榮醫療社團法人乃榮醫院", "id": "0907350010"}}, {"geometry": {"type": "Point", "coordinates": ["120.2973770122", "22.6155832055"]}, "type": "Feature", "properties": {"phone": "07-3351121", "add": "高雄市苓雅區成功一路162號", "code": "07", "name": "阮綜合醫療社團法人 阮綜合醫院", "id": "0902080013"}}, {"geometry": {"type": "Point", "coordinates": ["120.2973048331", "22.6146617338"]}, "type": "Feature", "properties": {"phone": "07-3364131", "add": "高雄市苓雅區成功一路137號1至6樓", "code": "07", "name": "邱外科醫院", "id": "1502081175"}}, {"geometry": {"type": "Point", "coordinates": ["120.3327369499", "22.6314929261"]}, "type": "Feature", "properties": {"phone": "07-7225391", "add": "高雄市苓雅區建國一路115之4號", "code": "07", "name": "林國坤診所", "id": "3502080894"}}, {"geometry": {"type": "Point", "coordinates": ["120.3261544853", "22.6334612983"]}, "type": "Feature", "properties": {"phone": "07-7277097", "add": "高雄市苓雅區大順三路186號", "code": "07", "name": "聖安診所", "id": "3531044562"}}, {"geometry": {"type": "Point", "coordinates": ["120.3191578003", "22.6276321604"]}, "type": "Feature", "properties": {"phone": "07-2267753", "add": "高雄市苓雅區和平一路150號", "code": "07", "name": "小太陽診所", "id": "3502083911"}}, {"geometry": {"type": "Point", "coordinates": ["120.3330145129", "22.6302207112"]}, "type": "Feature", "properties": {"phone": "07-7710966", "add": "高雄市苓雅區輔仁路149號", "code": "07", "name": "立佳診所", "id": "3507350024"}}, {"geometry": {"type": "Point", "coordinates": ["120.3215856387", "22.6366999508"]}, "type": "Feature", "properties": {"phone": "07-2222088", "add": "高雄市苓雅區憲政路240號1至4樓", "code": "07", "name": "吳三江內科診所", "id": "3502084187"}}, {"geometry": {"type": "Point", "coordinates": ["120.3159888452", "22.6237461886"]}, "type": "Feature", "properties": {"phone": "07-7160043", "add": "高雄市苓雅區光華一路148之59號", "code": "07", "name": "馨田耳鼻喉科診所", "id": "3502083706"}}, {"geometry": {"type": "Point", "coordinates": ["120.3343691237", "22.6309578373"]}, "type": "Feature", "properties": {"phone": "07-7159500", "add": "高雄市苓雅區建國一路111號", "code": "07", "name": "惠霖診所", "id": "3502081971"}}, {"geometry": {"type": "Point", "coordinates": ["120.3278892875", "22.631853326"]}, "type": "Feature", "properties": {"phone": "07-7222628", "add": "高雄市苓雅區福德二路69號1樓", "code": "07", "name": "冠泰診所", "id": "3502084338"}}, {"geometry": {"type": "Point", "coordinates": ["120.3050133113", "22.6160021526"]}, "type": "Feature", "properties": {"phone": "07-3348656", "add": "高雄市苓雅區興中一路314號", "code": "07", "name": "侯內兒科診所", "id": "3502080661"}}, {"geometry": {"type": "Point", "coordinates": ["120.3059812931", "22.6023169875"]}, "type": "Feature", "properties": {"phone": "07-5376995", "add": "高雄市前鎮區中華五路987號1至2樓", "code": "07", "name": "尚佑診所", "id": "3502098225"}}, {"geometry": {"type": "Point", "coordinates": ["120.31008455", "22.6113365187"]}, "type": "Feature", "properties": {"phone": "07-5374381", "add": "高雄市前鎮區一心二路59號1樓", "code": "07", "name": "陳方明診所", "id": "3502097237"}}, {"geometry": {"type": "Point", "coordinates": ["120.3102179212", "22.6112209683"]}, "type": "Feature", "properties": {"phone": "07-5361568", "add": "高雄市前鎮區一心二路47之1號", "code": "07", "name": "尚正診所", "id": "3502098243"}}, {"geometry": {"type": "Point", "coordinates": ["120.3161020163", "22.6090869344"]}, "type": "Feature", "properties": {"phone": "07-3318012", "add": "高雄市前鎮區一心一路388號1樓", "code": "07", "name": "嘉祐耳鼻喉科診所", "id": "3522024089"}}, {"geometry": {"type": "Point", "coordinates": ["120.3253084259", "22.6048024583"]}, "type": "Feature", "properties": {"phone": "07-7119401", "add": "高雄市前鎮區瑞隆路631號", "code": "07", "name": "張朝金家庭醫學科外科診所", "id": "3502090836"}}, {"geometry": {"type": "Point", "coordinates": ["120.322230106", "22.5842259276"]}, "type": "Feature", "properties": {"phone": "07-8310970", "add": "高雄市前鎮區草衙一路112號", "code": "07", "name": "聖青診所", "id": "3502090309"}}, {"geometry": {"type": "Point", "coordinates": ["120.3198488179", "22.5888849113"]}, "type": "Feature", "properties": {"phone": "07-8121606", "add": "高雄市前鎮區樹人路128號", "code": "07", "name": "佑鎮診所", "id": "3507360182"}}, {"geometry": {"type": "Point", "coordinates": ["120.3088619022", "22.6135709172"]}, "type": "Feature", "properties": {"phone": "07-3361136", "add": "高雄市前鎮區林森三路150號", "code": "07", "name": "吳泰成耳鼻喉科診所", "id": "3502090694"}}, {"geometry": {"type": "Point", "coordinates": ["120.3230037492", "22.5800793913"]}, "type": "Feature", "properties": {"phone": "07-8112522", "add": "高雄市前鎮區草衙二路470號1樓", "code": "07", "name": "宏昇診所", "id": "3507360155"}}, {"geometry": {"type": "Point", "coordinates": ["120.3104070677", "22.6115342811"]}, "type": "Feature", "properties": {"phone": "07-3340393", "add": "高雄市前鎮區一心二路86號", "code": "07", "name": "祥全診所", "id": "3507360066"}}, {"geometry": {"type": "Point", "coordinates": ["120.3308370567", "22.6078780344"]}, "type": "Feature", "properties": {"phone": "07-7616420", "add": "高雄市前鎮區公正路268號", "code": "07", "name": "瑞安診所", "id": "3502090884"}}, {"geometry": {"type": "Point", "coordinates": ["120.3143902422", "22.61208009"]}, "type": "Feature", "properties": {"phone": "07-3319611", "add": "高雄市前鎮區民權二路430號", "code": "07", "name": "吳昆哲婦產小兒科", "id": "1502090209"}}, {"geometry": {"type": "Point", "coordinates": ["120.3088068637", "22.6134848511"]}, "type": "Feature", "properties": {"phone": "07-3385678", "add": "高雄市前鎮區林森三路146號1樓", "code": "07", "name": "南隆小兒科診所", "id": "3507360413"}}, {"geometry": {"type": "Point", "coordinates": ["120.3058748923", "22.6025975183"]}, "type": "Feature", "properties": {"phone": "07-5366226", "add": "高雄市前鎮區中華五路993號2樓", "code": "07", "name": "慶大診所", "id": "3502098092"}}, {"geometry": {"type": "Point", "coordinates": ["120.3069745404", "22.6278256807"]}, "type": "Feature", "properties": {"phone": "07-2151357", "add": "高雄市新興區民生一路240號", "code": "07", "name": "幸生診所", "id": "3502063295"}}, {"geometry": {"type": "Point", "coordinates": ["120.3005604787", "22.63012787"]}, "type": "Feature", "properties": {"phone": "07-2722217", "add": "高雄市新興區南台路37之2號", "code": "07", "name": "南和診所", "id": "3502061362"}}, {"geometry": {"type": "Point", "coordinates": ["120.3086654382", "22.6225498599"]}, "type": "Feature", "properties": {"phone": "07-2017680", "add": "高雄市新興區仁愛二街8號", "code": "07", "name": "愛心內兒科診所", "id": "3502060605"}}, {"geometry": {"type": "Point", "coordinates": ["120.3046378264", "22.6283845349"]}, "type": "Feature", "properties": {"phone": "07-2815287", "add": "高雄市新興區林森一路120號", "code": "07", "name": "陳中柱外內科診所", "id": "3502060883"}}, {"geometry": {"type": "Point", "coordinates": ["120.3059256335", "22.6313522507"]}, "type": "Feature", "properties": {"phone": "07-2361377", "add": "高雄市新興區忠孝一路249號1至3樓", "code": "07", "name": "張榮州婦產科診所", "id": "3502061522"}}, {"geometry": {"type": "Point", "coordinates": ["120.2999387183", "22.6287976152"]}, "type": "Feature", "properties": {"phone": "07-2811668", "add": "高雄市新興區大同一路200號3樓", "code": "07", "name": "立人健康診所", "id": "3507330040"}}, {"geometry": {"type": "Point", "coordinates": ["120.3047755064", "22.6300287614"]}, "type": "Feature", "properties": {"phone": "07-2413308", "add": "高雄市新興區林森一路158號", "code": "07", "name": "謝德利診所", "id": "3502061291"}}, {"geometry": {"type": "Point", "coordinates": ["120.3090312735", "22.6326841542"]}, "type": "Feature", "properties": {"phone": "07-2387871", "add": "高雄市新興區洛陽街1號", "code": "07", "name": "葉英鏘診所", "id": "3502060150"}}, {"geometry": {"type": "Point", "coordinates": ["120.298684968", "22.6325851377"]}, "type": "Feature", "properties": {"phone": "07-2870789", "add": "高雄市新興區民主路71號1樓", "code": "07", "name": "吳國欽內科診所", "id": "3502063302"}}, {"geometry": {"type": "Point", "coordinates": ["120.2987791069", "22.6339763112"]}, "type": "Feature", "properties": {"phone": "07-2887338", "add": "高雄市新興區七賢二路89號1樓", "code": "07", "name": "七賢診所", "id": "3502061586"}}, {"geometry": {"type": "Point", "coordinates": ["120.30870388", "22.63570811"]}, "type": "Feature", "properties": {"phone": "07-2386222", "add": "高雄市新興區八德一路182號", "code": "07", "name": "展華內兒科診所", "id": "3502060632"}}, {"geometry": {"type": "Point", "coordinates": ["120.3137119231", "22.6275746372"]}, "type": "Feature", "properties": {"phone": "07-2238481", "add": "高雄市新興區五福一路86號", "code": "07", "name": "東生診所", "id": "3502061406"}}, {"geometry": {"type": "Point", "coordinates": ["120.3128780845", "22.6272581369"]}, "type": "Feature", "properties": {"phone": "07-2291237", "add": "高雄市新興區五福一路120號1樓", "code": "07", "name": "維格皮膚科診所", "id": "3502063240"}}, {"geometry": {"type": "Point", "coordinates": ["120.3043067148", "22.6346505705"]}, "type": "Feature", "properties": {"phone": "07-2352268", "add": "高雄市新興區七賢一路476號", "code": "07", "name": "王育彥耳鼻喉科診所", "id": "3502061059"}}, {"geometry": {"type": "Point", "coordinates": ["120.2983051152", "22.6338207158"]}, "type": "Feature", "properties": {"phone": "07-2876080", "add": "高雄市新興區七賢二路９７號", "code": "07", "name": "新華醫院", "id": "1502061208"}}, {"geometry": {"type": "Point", "coordinates": ["120.3139767906", "22.6334187922"]}, "type": "Feature", "properties": {"phone": "07-2231243", "add": "高雄市新興區民族二路76號1至4樓", "code": "07", "name": "蘇榮茂診所", "id": "3502062725"}}, {"geometry": {"type": "Point", "coordinates": ["120.317573989", "22.6307790122"]}, "type": "Feature", "properties": {"phone": "07-2234383", "add": "高雄市新興區和平一路193號1至2樓", "code": "07", "name": "家佳診所", "id": "3502062976"}}, {"geometry": {"type": "Point", "coordinates": ["120.3052579707", "22.636253162"]}, "type": "Feature", "properties": {"phone": "07-2379119", "add": "高雄市新興區林森一路276號1至2樓", "code": "07", "name": "蘇鉉釗耳鼻喉科診所", "id": "3502063151"}}, {"geometry": {"type": "Point", "coordinates": ["120.3112671919", "22.6283408391"]}, "type": "Feature", "properties": {"phone": "07-2260591", "add": "高雄市新興區開封路31號1樓", "code": "07", "name": "光晴診所", "id": "3507330031"}}, {"geometry": {"type": "Point", "coordinates": ["120.3050209441", "22.6239061399"]}, "type": "Feature", "properties": {"phone": "07-2817220", "add": "高雄市新興區林森一路37之1號1樓", "code": "07", "name": "馬敘強診所", "id": "3507330291"}}, {"geometry": {"type": "Point", "coordinates": ["120.3078411122", "22.6307682029"]}, "type": "Feature", "properties": {"phone": "07-2413388", "add": "高雄市新興區中正三路63號1樓", "code": "07", "name": "蔡瑞聲診所", "id": "3502063035"}}, {"geometry": {"type": "Point", "coordinates": ["120.3071804251", "22.621866144"]}, "type": "Feature", "properties": {"phone": "07-2513388", "add": "高雄市新興區青年一路278號1至4樓", "code": "07", "name": "健和診所", "id": "3502063115"}}, {"geometry": {"type": "Point", "coordinates": ["120.3045993867", "22.6284837088"]}, "type": "Feature", "properties": {"phone": "07-2820396", "add": "高雄市新興區林森一路126號1樓", "code": "07", "name": "偉峰診所", "id": "3502063259"}}, {"geometry": {"type": "Point", "coordinates": ["120.3148499858", "22.631941443"]}, "type": "Feature", "properties": {"phone": "07-2262128", "add": "高雄市新興區六合路157號1至2樓", "code": "07", "name": "周玉祺診所", "id": "3507330237"}}, {"geometry": {"type": "Point", "coordinates": ["120.3080816317", "22.6328968097"]}, "type": "Feature", "properties": {"phone": "07-2350168", "add": "高雄市新興區復興一路107之1號", "code": "07", "name": "毛重富耳鼻喉科診所", "id": "3502061139"}}, {"geometry": {"type": "Point", "coordinates": ["120.3046974087", "22.6296942787"]}, "type": "Feature", "properties": {"phone": "07-2719087", "add": "高雄市新興區林森一路154號之1", "code": "07", "name": "紀耳鼻喉科診所", "id": "3502060534"}}, {"geometry": {"type": "Point", "coordinates": ["120.3014487196", "22.62976506"]}, "type": "Feature", "properties": {"phone": "07-2010196", "add": "高雄市新興區中山一路67號之2", "code": "07", "name": "惠仁醫院", "id": "1502060149"}}, {"geometry": {"type": "Point", "coordinates": ["120.3092545788", "22.6353131176"]}, "type": "Feature", "properties": {"phone": "07-2363128", "add": "高雄市新興區八德一路155號1樓", "code": "07", "name": "增田診所", "id": "3502063062"}}, {"geometry": {"type": "Point", "coordinates": ["120.3060799244", "22.6345134585"]}, "type": "Feature", "properties": {"phone": "07-2385878", "add": "高雄市新興區七賢一路420號B1至8樓", "code": "07", "name": "七賢脊椎外科醫院", "id": "1507330011"}}, {"geometry": {"type": "Point", "coordinates": ["120.2908352696", "22.6313224749"]}, "type": "Feature", "properties": {"phone": "07-2613866", "add": "高雄市前金區七賢二路295號", "code": "07", "name": "健新醫院", "id": "1502070118"}}, {"geometry": {"type": "Point", "coordinates": ["120.2928313138", "22.6311958093"]}, "type": "Feature", "properties": {"phone": "07-2828668", "add": "高雄市前金區自強一路67號B1至7樓", "code": "07", "name": "上琳醫院", "id": "1507340026"}}, {"geometry": {"type": "Point", "coordinates": ["120.295621865", "22.6240555734"]}, "type": "Feature", "properties": {"phone": "07-2412233", "add": "高雄市前金區自強二路69號", "code": "07", "name": "大郭診所", "id": "3507340199"}}, {"geometry": {"type": "Point", "coordinates": ["120.2952719915", "22.6248736521"]}, "type": "Feature", "properties": {"phone": "07-2618500", "add": "高雄市前金區民生二路129號1樓", "code": "07", "name": "王銘燦皮膚科診所", "id": "3502072043"}}, {"geometry": {"type": "Point", "coordinates": ["120.2938080355", "22.6271994065"]}, "type": "Feature", "properties": {"phone": "07-2515198", "add": "高雄市前金區自強二路20號1樓", "code": "07", "name": "文宏耳鼻喉科診所", "id": "3502072249"}}, {"geometry": {"type": "Point", "coordinates": ["120.2956544729", "22.623956376"]}, "type": "Feature", "properties": {"phone": "07-2818558", "add": "高雄市前金區自強二路65號", "code": "07", "name": "翁宏仁婦產科診所", "id": "3502070790"}}, {"geometry": {"type": "Point", "coordinates": ["120.2953286735", "22.6313964316"]}, "type": "Feature", "properties": {"phone": "07-2869599", "add": "高雄市前金區中華三路152號", "code": "07", "name": "黃鵬國診所", "id": "3502070709"}}, {"geometry": {"type": "Point", "coordinates": ["120.2917754286", "22.6339184951"]}, "type": "Feature", "properties": {"phone": "07-2811221", "add": "高雄市前金區自強一路183之3號", "code": "07", "name": "蔡景福內兒科診所", "id": "3502070138"}}, {"geometry": {"type": "Point", "coordinates": ["120.2960975066", "22.6330705226"]}, "type": "Feature", "properties": {"phone": "07-2867000", "add": "高雄市前金區七賢二路183號1至3樓", "code": "07", "name": "好生診所", "id": "3502072418"}}, {"geometry": {"type": "Point", "coordinates": ["120.2974675239", "22.6301595305"]}, "type": "Feature", "properties": {"phone": "07-2856777", "add": "高雄市前金區中正四路124號1樓", "code": "07", "name": "宏祐診所", "id": "3502072258"}}, {"geometry": {"type": "Point", "coordinates": ["120.2959386857", "22.6348398871"]}, "type": "Feature", "properties": {"phone": "07-2858371", "add": "高雄市前金區瑞源路189號", "code": "07", "name": "蔡國晉家庭醫學科診所", "id": "3502070450"}}, {"geometry": {"type": "Point", "coordinates": ["120.2995751234", "22.6210474878"]}, "type": "Feature", "properties": {"phone": "07-2413103", "add": "高雄市前金區新田路220號1樓", "code": "07", "name": "大明診所", "id": "3502070834"}}, {"geometry": {"type": "Point", "coordinates": ["120.2972054217", "22.6269898375"]}, "type": "Feature", "properties": {"phone": "07-2911101", "add": "高雄市前金區中華三路68號", "code": "07", "name": "高雄市立大同醫院 (委託財團法人私立高雄醫 學大學附設中和紀念醫院經 營)", "id": "0102070020"}}, {"geometry": {"type": "Point", "coordinates": ["120.2929361942", "22.6310427453"]}, "type": "Feature", "properties": {"phone": "07-2113165", "add": "高雄市前金區自強一路63號B1至2樓", "code": "07", "name": "吉田耳鼻喉科診所", "id": "3507340028"}}, {"geometry": {"type": "Point", "coordinates": ["120.2939292638", "22.6337917627"]}, "type": "Feature", "properties": {"phone": "07-2167126", "add": "高雄市前金區中華三路227號1樓", "code": "07", "name": "余國榮耳鼻咽喉科診所", "id": "3502070825"}}, {"geometry": {"type": "Point", "coordinates": ["120.2822141825", "22.6259378921"]}, "type": "Feature", "properties": {"phone": "07-5611725", "add": "高雄市鹽埕區七賢三路122號1樓", "code": "07", "name": "洪清文診所", "id": "3502011568"}}, {"geometry": {"type": "Point", "coordinates": ["120.2815979", "22.6279656"]}, "type": "Feature", "properties": {"phone": "07-5511852", "add": "高雄市鹽埕區建國四路243號", "code": "07", "name": "王德瑞內兒科診所", "id": "3502010052"}}, {"geometry": {"type": "Point", "coordinates": ["120.2820721374", "22.6270661213"]}, "type": "Feature", "properties": {"phone": "07-5324460", "add": "高雄市鹽埕區新興街118號1樓", "code": "07", "name": "施家庭醫學科診所", "id": "3502010427"}}, {"geometry": {"type": "Point", "coordinates": ["120.2833973851", "22.6234506409"]}, "type": "Feature", "properties": {"phone": "07-5513436", "add": "高雄市鹽埕區五福四路161號", "code": "07", "name": "永明診所", "id": "3502010365"}}, {"geometry": {"type": "Point", "coordinates": ["120.2841160313", "22.6280234861"]}, "type": "Feature", "properties": {"phone": "07-5216655", "add": "高雄市鹽埕區瀨南街225之1號1樓", "code": "07", "name": "汪昇勳耳鼻喉科診所", "id": "3502010507"}}, {"geometry": {"type": "Point", "coordinates": ["120.2841216437", "22.622794612"]}, "type": "Feature", "properties": {"phone": "07-5315657", "add": "高雄市鹽埕區莒光街137號", "code": "07", "name": "盧榮坤小兒科診所", "id": "3502010463"}}, {"geometry": {"type": "Point", "coordinates": ["120.2824812433", "22.6279078232"]}, "type": "Feature", "properties": {"phone": "07-5511051", "add": "高雄市鹽埕區大公路100號", "code": "07", "name": "劉應炎診所", "id": "3502010329"}}, {"geometry": {"type": "Point", "coordinates": ["120.2855160599", "22.6240470841"]}, "type": "Feature", "properties": {"phone": "07-5316775", "add": "高雄市鹽埕區新樂街120號1樓", "code": "07", "name": "新欣診所", "id": "3502011639"}}, {"geometry": {"type": "Point", "coordinates": ["120.2876851807", "22.6222144056"]}, "type": "Feature", "properties": {"phone": "07-5618121", "add": "高雄市鹽埕區大禮街60之1號", "code": "07", "name": "木雄婦產科診所", "id": "3502010187"}}, {"geometry": {"type": "Point", "coordinates": ["120.2921160088", "22.7122504525"]}, "type": "Feature", "properties": {"phone": "07-3658663", "add": "高雄市楠梓區軍校路884號", "code": "07", "name": "慶仁耳鼻喉科診所", "id": "3502040612"}}, {"geometry": {"type": "Point", "coordinates": ["120.2866155852", "22.7191499464"]}, "type": "Feature", "properties": {"phone": "07-3012355", "add": "高雄市楠梓區德民路1003之3號1樓", "code": "07", "name": "何慈育診所", "id": "3507310280"}}, {"geometry": {"type": "Point", "coordinates": ["120.2905745292", "22.7130597374"]}, "type": "Feature", "properties": {"phone": "07-3618293", "add": "高雄市楠梓區加昌路972號", "code": "07", "name": "楊煌榮內兒科診所", "id": "3502040238"}}, {"geometry": {"type": "Point", "coordinates": ["120.2961228864", "22.7100859727"]}, "type": "Feature", "properties": {"phone": "07-3619595", "add": "高雄市楠梓區後昌路763號1樓", "code": "07", "name": "李國祥內兒科診所", "id": "3502040069"}}, {"geometry": {"type": "Point", "coordinates": ["120.290930503", "22.7172877388"]}, "type": "Feature", "properties": {"phone": "07-3684128", "add": "高雄市楠梓區後昌路1165號1樓", "code": "07", "name": "仁安診所", "id": "3502042036"}}, {"geometry": {"type": "Point", "coordinates": ["120.2891143629", "22.720534004"]}, "type": "Feature", "properties": {"phone": "07-3600680", "add": "高雄市楠梓區德民路949號1樓", "code": "07", "name": "王建安小兒科診所", "id": "3502042223"}}, {"geometry": {"type": "Point", "coordinates": ["120.3009346", "22.7083385"]}, "type": "Feature", "properties": {"phone": "07-5824141", "add": "高雄市楠梓區後昌路546巷2號1至2樓", "code": "07", "name": "台灣中油股份有限公司 煉製事業部國光聯合診所", "id": "2702040071"}}, {"geometry": {"type": "Point", "coordinates": ["120.3371613838", "22.7374710182"]}, "type": "Feature", "properties": {"phone": "07-3537431", "add": "高雄市楠梓區常德路331號1樓", "code": "07", "name": "常德診所", "id": "3502040738"}}, {"geometry": {"type": "Point", "coordinates": ["120.3270880916", "22.7266913095"]}, "type": "Feature", "properties": {"phone": "07-3553110", "add": "高雄市楠梓區楠都東街222號", "code": "07", "name": "林自強內科診所", "id": "3502042303"}}, {"geometry": {"type": "Point", "coordinates": ["120.3256825548", "22.7268298913"]}, "type": "Feature", "properties": {"phone": "07-3529803", "add": "高雄市楠梓區建楠路179號1樓", "code": "07", "name": "高耿耀診所", "id": "3502040596"}}, {"geometry": {"type": "Point", "coordinates": ["120.328987866", "22.7236197561"]}, "type": "Feature", "properties": {"phone": "07-3517166", "add": "高雄市楠梓區楠陽路136號", "code": "07", "name": "健仁醫院", "id": "1502040021"}}, {"geometry": {"type": "Point", "coordinates": ["120.290879149", "22.7138002464"]}, "type": "Feature", "properties": {"phone": "07-3643388", "add": "高雄市楠梓區軍校路930號B1至9樓", "code": "07", "name": "右昌聯合醫院", "id": "1502041117"}}, {"geometry": {"type": "Point", "coordinates": ["120.2891002931", "22.7142723636"]}, "type": "Feature", "properties": {"phone": "07-3612995", "add": "高雄市楠梓區右昌街331號1至5樓", "code": "07", "name": "長春醫院", "id": "1502041108"}}, {"geometry": {"type": "Point", "coordinates": ["120.2956919686", "22.7111677794"]}, "type": "Feature", "properties": {"phone": "07-3639053", "add": "高雄市楠梓區後昌路826號", "code": "07", "name": "顏威裕醫院", "id": "1502040076"}}, {"geometry": {"type": "Point", "coordinates": ["120.2937278461", "22.7133897486"]}, "type": "Feature", "properties": {"phone": "07-3633900", "add": "高雄市楠梓區後昌路915號", "code": "07", "name": "歐慈德內科診所", "id": "3502040078"}}, {"geometry": {"type": "Point", "coordinates": ["120.3261694804", "22.7281956003"]}, "type": "Feature", "properties": {"phone": "07-3531510", "add": "高雄市楠梓區楠梓新路260號1樓", "code": "07", "name": "九大聯合診所", "id": "3502040747"}}, {"geometry": {"type": "Point", "coordinates": ["120.2889803125", "22.715042164"]}, "type": "Feature", "properties": {"phone": "07-3610115", "add": "高雄市楠梓區右昌街376號", "code": "07", "name": "康東原診所", "id": "3502040685"}}, {"geometry": {"type": "Point", "coordinates": ["120.297771923", "22.7090226607"]}, "type": "Feature", "properties": {"phone": "07-3605998", "add": "高雄市楠梓區後昌路678號1樓", "code": "07", "name": "廣佑安診所", "id": "3502042248"}}, {"geometry": {"type": "Point", "coordinates": ["120.2959927298", "22.7102208635"]}, "type": "Feature", "properties": {"phone": "07-3639666", "add": "高雄市楠梓區後昌路773號1樓", "code": "07", "name": "聖昌診所", "id": "3502040809"}}, {"geometry": {"type": "Point", "coordinates": ["120.2908463", "22.7069359"]}, "type": "Feature", "properties": {"phone": "07-3630769", "add": "高雄市楠梓區軍校路664號", "code": "07", "name": "賴聰宏小兒科診所", "id": "3502040354"}}, {"geometry": {"type": "Point", "coordinates": ["120.3265910552", "22.726751307"]}, "type": "Feature", "properties": {"phone": "07-3515056", "add": "高雄市楠梓區建楠路143號1樓及3樓", "code": "07", "name": "吉豐耳鼻喉科診所", "id": "3502040318"}}, {"geometry": {"type": "Point", "coordinates": ["120.3380183012", "22.7415023271"]}, "type": "Feature", "properties": {"phone": "07-3551133", "add": "高雄市楠梓區旗楠路883之8號1樓", "code": "07", "name": "家恩診所", "id": "3507310182"}}, {"geometry": {"type": "Point", "coordinates": ["120.3265910552", "22.726751307"]}, "type": "Feature", "properties": {"phone": "07-3515056", "add": "高雄市楠梓區建楠路143號1至3樓", "code": "07", "name": "元景耳鼻喉科神經科診所", "id": "3507310306"}}, {"geometry": {"type": "Point", "coordinates": ["120.3014075", "22.7217883"]}, "type": "Feature", "properties": {"phone": "07-3617131", "add": "高雄市楠梓區加工出口區經五路123號6至7 樓", "code": "07", "name": "日月光半導體製造 股份有限公司附設員工醫務 室", "id": "3402040512"}}, {"geometry": {"type": "Point", "coordinates": ["120.2967162475", "22.7189568557"]}, "type": "Feature", "properties": {"phone": "07-3619412", "add": "高雄市楠梓區樂群路179巷2號", "code": "07", "name": "宏生診所", "id": "3502040309"}}, {"geometry": {"type": "Point", "coordinates": ["120.2961267801", "22.7205798152"]}, "type": "Feature", "properties": {"phone": "07-3655331", "add": "高雄市楠梓區樂群路241號", "code": "07", "name": "宏育診所", "id": "3502040550"}}, {"geometry": {"type": "Point", "coordinates": ["120.3216271156", "22.728519595"]}, "type": "Feature", "properties": {"phone": "07-3638188", "add": "高雄市楠梓區高楠公路1762號1樓", "code": "07", "name": "慕恩診所", "id": "3507310208"}}, {"geometry": {"type": "Point", "coordinates": ["120.3285023", "22.7297539"]}, "type": "Feature", "properties": {"phone": "07-3529801", "add": "高雄市楠梓區岳陽街53號", "code": "07", "name": "健安診所", "id": "3502040578"}}, {"geometry": {"type": "Point", "coordinates": ["120.3272368224", "22.7328446562"]}, "type": "Feature", "properties": {"phone": "07-3521077", "add": "高雄市楠梓區楠梓路28號", "code": "07", "name": "陳其新診所", "id": "3502040569"}}, {"geometry": {"type": "Point", "coordinates": ["120.3050429005", "22.7262539891"]}, "type": "Feature", "properties": {"phone": "07-3613709", "add": "高雄市楠梓區德賢路241號1樓", "code": "07", "name": "孫欲珍小兒科家庭醫學科診 所", "id": "3502041860"}}, {"geometry": {"type": "Point", "coordinates": ["120.3039454304", "22.7261137603"]}, "type": "Feature", "properties": {"phone": "07-3648127", "add": "高雄市楠梓區德賢路265號1樓", "code": "07", "name": "陳顯明診所", "id": "3502040667"}}, {"geometry": {"type": "Point", "coordinates": ["120.301729119", "22.7264021291"]}, "type": "Feature", "properties": {"phone": "07-3630930", "add": "高雄市楠梓區德賢路530巷9號1至2樓", "code": "07", "name": "祥霖診所", "id": "3502041888"}}, {"geometry": {"type": "Point", "coordinates": ["120.2985725993", "22.7249163103"]}, "type": "Feature", "properties": {"phone": "07-3640553", "add": "高雄市楠梓區惠民路46號", "code": "07", "name": "長義診所", "id": "3502042296"}}, {"geometry": {"type": "Point", "coordinates": ["120.3093466579", "22.7265867952"]}, "type": "Feature", "properties": {"phone": "07-3645599", "add": "高雄市楠梓區德祥路149號1樓", "code": "07", "name": "杏美診所", "id": "3507310217"}}, {"geometry": {"type": "Point", "coordinates": ["120.2977837555", "22.7236304764"]}, "type": "Feature", "properties": {"phone": "07-3600819", "add": "高雄市楠梓區益群路6號1樓", "code": "07", "name": "林邑樵耳鼻喉科診所", "id": "3507310164"}}, {"geometry": {"type": "Point", "coordinates": ["120.2933746262", "22.7235330678"]}, "type": "Feature", "properties": {"phone": "07-3651090", "add": "高雄市楠梓區惠民路235號1樓", "code": "07", "name": "鄭泰德診所", "id": "3507310173"}}, {"geometry": {"type": "Point", "coordinates": ["120.3296231017", "22.7261239657"]}, "type": "Feature", "properties": {"phone": "07-3523006", "add": "高雄市楠梓區鳳楠路248號1樓", "code": "07", "name": "建霖耳鼻喉科診所", "id": "3502042107"}}, {"geometry": {"type": "Point", "coordinates": ["120.2916885333", "22.7184764075"]}, "type": "Feature", "properties": {"phone": "07-3609988", "add": "高雄市楠梓區後昌新路15號", "code": "07", "name": "家福耳鼻喉科診所", "id": "3502042312"}}, {"geometry": {"type": "Point", "coordinates": ["120.3065805703", "22.7265586721"]}, "type": "Feature", "properties": {"phone": "07-3663511", "add": "高雄市楠梓區德賢路165號1至2樓", "code": "07", "name": "楊宗憲診所", "id": "3507310271"}}, {"geometry": {"type": "Point", "coordinates": ["120.3074515773", "22.725960184"]}, "type": "Feature", "properties": {"phone": "07-3658288", "add": "高雄市楠梓區德民路292號1至3樓", "code": "07", "name": "杏生婦產科診所", "id": "3502042054"}}, {"geometry": {"type": "Point", "coordinates": ["120.2716509963", "22.6222328454"]}, "type": "Feature", "properties": {"phone": "07-5512013", "add": "高雄市鼓山區鼓波街42之11號", "code": "07", "name": "鼎新診所", "id": "3502020183"}}, {"geometry": {"type": "Point", "coordinates": ["120.2974209869", "22.6613350409"]}, "type": "Feature", "properties": {"phone": "07-5535658", "add": "高雄市鼓山區明誠三路598號", "code": "07", "name": "吳展名診所", "id": "3502022203"}}, {"geometry": {"type": "Point", "coordinates": ["120.2870737713", "22.6682150792"]}, "type": "Feature", "properties": {"phone": "07-5873653", "add": "高雄市鼓山區中華一路10號", "code": "07", "name": "陳大洲耳鼻喉科診所", "id": "3502020281"}}, {"geometry": {"type": "Point", "coordinates": ["120.3002602297", "22.6552832461"]}, "type": "Feature", "properties": {"phone": "07-5501711", "add": "高雄市鼓山區大順一路823號", "code": "07", "name": "黃柏翰皮膚科診所", "id": "3502021948"}}, {"geometry": {"type": "Point", "coordinates": ["120.2967465388", "22.6655392038"]}, "type": "Feature", "properties": {"phone": "07-5555350", "add": "高雄市鼓山區華榮路207號1樓", "code": "07", "name": "鄭廣仁小兒科診所", "id": "3502022230"}}, {"geometry": {"type": "Point", "coordinates": ["120.2666409905", "22.6264545792"]}, "type": "Feature", "properties": {"phone": "07-5250115", "add": "高雄市鼓山區蓮海路70號東1003室", "code": "07", "name": "國立中山大學附設醫務室", "id": "2402020519"}}, {"geometry": {"type": "Point", "coordinates": ["120.2970162166", "22.6662787177"]}, "type": "Feature", "properties": {"phone": "07-5527887", "add": "高雄市鼓山區華榮路298號1樓", "code": "07", "name": "瑞芳耳鼻喉科診所", "id": "3502020530"}}, {"geometry": {"type": "Point", "coordinates": ["120.2991769496", "22.6647373205"]}, "type": "Feature", "properties": {"phone": "07-5227188", "add": "高雄市鼓山區文信路256號1樓", "code": "07", "name": "朱光興診所", "id": "3507290318"}}, {"geometry": {"type": "Point", "coordinates": ["120.2890053", "22.6549319"]}, "type": "Feature", "properties": {"phone": "07-5552565", "add": "高雄市鼓山區中華一路976號B1至9樓", "code": "07", "name": "高雄市立聯合醫院", "id": "0102020011"}}, {"geometry": {"type": "Point", "coordinates": ["120.2901008961", "22.6608238425"]}, "type": "Feature", "properties": {"phone": "07-5555366", "add": "高雄市鼓山區美術東四路325號", "code": "07", "name": "建生診所", "id": "3502022150"}}, {"geometry": {"type": "Point", "coordinates": ["120.2914016721", "22.6656326502"]}, "type": "Feature", "properties": {"phone": "07-5538665", "add": "高雄市鼓山區中華一路310號", "code": "07", "name": "明誠聯合診所", "id": "3502021635"}}, {"geometry": {"type": "Point", "coordinates": ["120.2921726326", "22.6643092203"]}, "type": "Feature", "properties": {"phone": "07-5544900", "add": "高雄市鼓山區中華一路336號1至2樓及6樓", "code": "07", "name": "腎美診所", "id": "3502020549"}}, {"geometry": {"type": "Point", "coordinates": ["120.2795398899", "22.6638737065"]}, "type": "Feature", "properties": {"phone": "07-5823989", "add": "高雄市鼓山區鼓山三路128之9號", "code": "07", "name": "正大醫院", "id": "1502020065"}}, {"geometry": {"type": "Point", "coordinates": ["120.2951855112", "22.6648643341"]}, "type": "Feature", "properties": {"phone": "07-5541515", "add": "高雄市鼓山區裕誠路1515號", "code": "07", "name": "家安診所", "id": "3502020316"}}, {"geometry": {"type": "Point", "coordinates": ["120.2787661384", "22.6557959428"]}, "type": "Feature", "properties": {"phone": "07-5215489", "add": "高雄市鼓山區九如四路957號2樓", "code": "07", "name": "為好診所", "id": "3507290194"}}, {"geometry": {"type": "Point", "coordinates": ["120.2976105297", "22.665633561"]}, "type": "Feature", "properties": {"phone": "07-5543957", "add": "高雄市鼓山區裕誠路1145號1至2樓", "code": "07", "name": "建元診所", "id": "3502020503"}}, {"geometry": {"type": "Point", "coordinates": ["120.2792755671", "22.6582011347"]}, "type": "Feature", "properties": {"phone": "07-5318616", "add": "高雄市鼓山區九如四路1410號", "code": "07", "name": "祐安小兒科診所", "id": "3502022114"}}, {"geometry": {"type": "Point", "coordinates": ["120.2756127149", "22.6550780272"]}, "type": "Feature", "properties": {"phone": "07-5313755", "add": "高雄市鼓山區鼓山三路52號", "code": "07", "name": "聖明醫院", "id": "1502020056"}}, {"geometry": {"type": "Point", "coordinates": ["120.2961519689", "22.6677042738"]}, "type": "Feature", "properties": {"phone": "07-5535760", "add": "高雄市鼓山區華榮路352號1樓", "code": "07", "name": "柯文良小兒科診所", "id": "3502020254"}}, {"geometry": {"type": "Point", "coordinates": ["120.2883108274", "22.6623156968"]}, "type": "Feature", "properties": {"phone": "07-5223138", "add": "高雄市鼓山區美術東二路177號B2至11樓", "code": "07", "name": "生安婦產小兒科醫院", "id": "1507290012"}}, {"geometry": {"type": "Point", "coordinates": ["120.3003498564", "22.6633336189"]}, "type": "Feature", "properties": {"phone": "07-5525711", "add": "高雄市鼓山區明華路303號", "code": "07", "name": "南加大耳鼻喉科診所", "id": "3507290283"}}, {"geometry": {"type": "Point", "coordinates": ["120.3577446564", "22.5670096384"]}, "type": "Feature", "properties": {"phone": "07-8068170", "add": "高雄市小港區漢民路413號1樓", "code": "07", "name": "長慶小兒科診所", "id": "3502111849"}}, {"geometry": {"type": "Point", "coordinates": ["120.3581857455", "22.5676206984"]}, "type": "Feature", "properties": {"phone": "07-8021622", "add": "高雄市小港區平治街1號", "code": "07", "name": "施晉南診所", "id": "3502110637"}}, {"geometry": {"type": "Point", "coordinates": ["120.3363891737", "22.5641728047"]}, "type": "Feature", "properties": {"phone": "07-8211098", "add": "高雄市小港區小港路237號1樓", "code": "07", "name": "蔡崇麟內科診所", "id": "3507380013"}}, {"geometry": {"type": "Point", "coordinates": ["120.3324749168", "22.5668569115"]}, "type": "Feature", "properties": {"phone": "07-8311228", "add": "高雄市小港區平和路144號1樓", "code": "07", "name": "朝陽耳鼻喉科診所", "id": "3507380040"}}, {"geometry": {"type": "Point", "coordinates": ["120.3588208344", "22.582145187"]}, "type": "Feature", "properties": {"phone": "07-7916959", "add": "高雄市小港區孔鳳路542號", "code": "07", "name": "明義診所", "id": "3502110593"}}, {"geometry": {"type": "Point", "coordinates": ["120.363368642", "22.5674674032"]}, "type": "Feature", "properties": {"phone": "07-8036783", "add": "高雄市小港區山明路482號B1至10樓", "code": "07", "name": "高雄市立小港醫院(委託財 團法人私立高雄醫學大學經 營)", "id": "1102110011"}}, {"geometry": {"type": "Point", "coordinates": ["120.3569266633", "22.5616822576"]}, "type": "Feature", "properties": {"phone": "07-8012171", "add": "高雄市小港區沿海一路461號1至7樓", "code": "07", "name": "臨海醫院", "id": "1502111098"}}, {"geometry": {"type": "Point", "coordinates": ["120.3589797", "22.565313"]}, "type": "Feature", "properties": {"phone": "07-8017856", "add": "高雄市小港區學府路111號", "code": "07", "name": "安泰醫院", "id": "1502110064"}}, {"geometry": {"type": "Point", "coordinates": ["120.3623056", "22.5676027984"]}, "type": "Feature", "properties": {"phone": "07-8053077", "add": "高雄市小港區漢民路716號1樓", "code": "07", "name": "柯芳蓉黃麗瑛小兒科診所", "id": "3502111929"}}, {"geometry": {"type": "Point", "coordinates": ["120.3463367304", "22.5263732349"]}, "type": "Feature", "properties": {"phone": "07-8720822", "add": "高雄市小港區鳳林路93之1號1至2樓", "code": "07", "name": "鳳林診所", "id": "3502112060"}}, {"geometry": {"type": "Point", "coordinates": ["120.3586250161", "22.5841131778"]}, "type": "Feature", "properties": {"phone": "07-7910311", "add": "高雄市小港區孔鳳路571號1樓", "code": "07", "name": "孔鳳診所", "id": "3507380086"}}, {"geometry": {"type": "Point", "coordinates": ["120.3611586352", "22.581558432"]}, "type": "Feature", "properties": {"phone": "07-7933880", "add": "高雄市小港區孔鳳路416號1樓", "code": "07", "name": "欣新診所", "id": "3507380059"}}, {"geometry": {"type": "Point", "coordinates": ["120.3523142552", "22.5821117522"]}, "type": "Feature", "properties": {"phone": "07-7917770", "add": "高雄市小港區桂陽路310號1樓", "code": "07", "name": "桂陽診所", "id": "3507380031"}}, {"geometry": {"type": "Point", "coordinates": ["120.3516674439", "22.5653187596"]}, "type": "Feature", "properties": {"phone": "07-8020972", "add": "高雄市小港區漢民路214號1樓", "code": "07", "name": "聖泰耳鼻喉科診所", "id": "3502110548"}}, {"geometry": {"type": "Point", "coordinates": ["120.3331579629", "22.5655592707"]}, "type": "Feature", "properties": {"phone": "07-8314168", "add": "高雄市小港區平和路105號", "code": "07", "name": "羅錦泉診所", "id": "3502110146"}}, {"geometry": {"type": "Point", "coordinates": ["120.3500861695", "22.5655471942"]}, "type": "Feature", "properties": {"phone": "07-8030816", "add": "高雄市小港區二苓路148號1樓", "code": "07", "name": "蔡坤霖小兒科診所", "id": "3502111956"}}, {"geometry": {"type": "Point", "coordinates": ["120.3519356365", "22.5661958529"]}, "type": "Feature", "properties": {"phone": "07-8063229", "add": "高雄市小港區漢民路249號", "code": "07", "name": "李宣炘診所", "id": "3502110566"}}, {"geometry": {"type": "Point", "coordinates": ["120.3557848734", "22.6773658873"]}, "type": "Feature", "properties": {"phone": "07-3747975", "add": "高雄市仁武區仁忠路83號", "code": "07", "name": "長恩聯合診所", "id": "3542081231"}}, {"geometry": {"type": "Point", "coordinates": ["120.3384505572", "22.6854936204"]}, "type": "Feature", "properties": {"phone": "07-3717928", "add": "高雄市仁武區八德中路59號1樓", "code": "07", "name": "健欣診所", "id": "3507080027"}}, {"geometry": {"type": "Point", "coordinates": ["120.3373172204", "22.6875763803"]}, "type": "Feature", "properties": {"phone": "07-3756161", "add": "高雄市仁武區八德西路2300號1樓", "code": "07", "name": "蔡定洲耳鼻喉科診所", "id": "3507080036"}}, {"geometry": {"type": "Point", "coordinates": ["120.3471997508", "22.7036409842"]}, "type": "Feature", "properties": {"phone": "07-3758419", "add": "高雄市仁武區仁樂街178號", "code": "07", "name": "揚善診所", "id": "3507080045"}}, {"geometry": {"type": "Point", "coordinates": ["120.3532364239", "22.6807185549"]}, "type": "Feature", "properties": {"phone": "07-3741298", "add": "高雄市仁武區仁雄路15之1號1樓", "code": "07", "name": "仁雄診所", "id": "3507080090"}}, {"geometry": {"type": "Point", "coordinates": ["120.3530703799", "22.7028436081"]}, "type": "Feature", "properties": {"phone": "07-3719895", "add": "高雄市仁武區中正路301號1樓", "code": "07", "name": "仁武好心診所", "id": "3507080063"}}, {"geometry": {"type": "Point", "coordinates": ["120.3515506655", "22.700291061"]}, "type": "Feature", "properties": {"phone": "07-3755500", "add": "高雄市仁武區中華路255號", "code": "07", "name": "陽光診所", "id": "3542081348"}}, {"geometry": {"type": "Point", "coordinates": ["120.3478022177", "22.7037291512"]}, "type": "Feature", "properties": {"phone": "07-3729603", "add": "高雄市仁武區仁樂街202號", "code": "07", "name": "仁里診所", "id": "3542080109"}}, {"geometry": {"type": "Point", "coordinates": ["120.3529095855", "22.7004403306"]}, "type": "Feature", "properties": {"phone": "07-3746901", "add": "高雄市仁武區中華路306號", "code": "07", "name": "易生診所", "id": "3542080190"}}, {"geometry": {"type": "Point", "coordinates": ["120.3559066585", "22.6818148982"]}, "type": "Feature", "properties": {"phone": "07-3718727", "add": "高雄市仁武區仁心路6號", "code": "07", "name": "劉內兒科診所", "id": "3542080047"}}, {"geometry": {"type": "Point", "coordinates": ["120.3339026984", "22.6742863069"]}, "type": "Feature", "properties": {"phone": "07-3718528", "add": "高雄市仁武區仁雄路９號", "code": "07", "name": "大林診所", "id": "3507080081"}}, {"geometry": {"type": "Point", "coordinates": ["120.2687772342", "22.612836689"]}, "type": "Feature", "properties": {"phone": "07-5719288", "add": "高雄市旗津區通山路31號", "code": "07", "name": "重康診所", "id": "3507370026"}}, {"geometry": {"type": "Point", "coordinates": ["120.2803739189", "22.5977531792"]}, "type": "Feature", "properties": {"phone": "07-5718239", "add": "高雄市旗津區中洲三路99之1號", "code": "07", "name": "白鋒釗診所", "id": "3502100079"}}, {"geometry": {"type": "Point", "coordinates": ["120.2950680286", "22.5760626385"]}, "type": "Feature", "properties": {"phone": "07-5718773", "add": "高雄市旗津區商港街14巷92弄18號", "code": "07", "name": "賴顯忠診所", "id": "3502101101"}}, {"geometry": {"type": "Point", "coordinates": ["120.2704724374", "22.607534215"]}, "type": "Feature", "properties": {"phone": "07-5710522", "add": "高雄市旗津區旗津三路962巷2號", "code": "07", "name": "晴美旗后診所", "id": "3507370035"}}, {"geometry": {"type": "Point", "coordinates": ["120.2851128577", "22.5902100348"]}, "type": "Feature", "properties": {"phone": "07-5711188", "add": "高雄市旗津區旗港路33號", "code": "07", "name": "高雄市立旗津醫院(委託財 團法人私立高雄醫學大學經 營)", "id": "1307370011"}}, {"geometry": {"type": "Point", "coordinates": ["120.3560285286", "22.6498465783"]}, "type": "Feature", "properties": {"phone": "07-7317123", "add": "高雄市鳥松區大埤路123號", "code": "07", "name": "長庚醫療財團法人 高雄長庚紀念醫院", "id": "1142100017"}}, {"geometry": {"type": "Point", "coordinates": ["120.3633262745", "22.6629320016"]}, "type": "Feature", "properties": {"phone": "07-7316996", "add": "高雄市鳥松區中正路355之2號1樓", "code": "07", "name": "豐穎診所", "id": "3507100015"}}, {"geometry": {"type": "Point", "coordinates": ["120.3634044668", "22.6622869767"]}, "type": "Feature", "properties": {"phone": "07-7335076", "add": "高雄市鳥松區中正路343號", "code": "07", "name": "聯安診所", "id": "3542101185"}}, {"geometry": {"type": "Point", "coordinates": ["120.3903320294", "22.6583635334"]}, "type": "Feature", "properties": {"phone": "07-7313935", "add": "高雄市鳥松區學堂路78之5號", "code": "07", "name": "劉金龍診所", "id": "3542100062"}}, {"geometry": {"type": "Point", "coordinates": ["120.3965683654", "22.5037600579"]}, "type": "Feature", "properties": {"phone": "07-6467666", "add": "高雄市林園區東林東路28號1樓", "code": "07", "name": "建芳診所", "id": "3542052034"}}, {"geometry": {"type": "Point", "coordinates": ["120.3866351538", "22.5038447069"]}, "type": "Feature", "properties": {"phone": "07-6437901", "add": "高雄市林園區東林西路360號", "code": "07", "name": "建佑醫院", "id": "1542050056"}}, {"geometry": {"type": "Point", "coordinates": ["120.3924741", "22.5090428"]}, "type": "Feature", "properties": {"phone": "07-6413399", "add": "高雄市林園區林園北路244號", "code": "07", "name": "霖園醫院", "id": "1542051151"}}, {"geometry": {"type": "Point", "coordinates": ["120.2989663468", "22.7890175525"]}, "type": "Feature", "properties": {"phone": "07-6231223", "add": "高雄市岡山區大德三路63號1樓", "code": "07", "name": "吳中仁診所", "id": "3507020012"}}, {"geometry": {"type": "Point", "coordinates": ["120.2850771709", "22.7982307251"]}, "type": "Feature", "properties": {"phone": "07-6268916", "add": "高雄市岡山區公園西路二段111號", "code": "07", "name": "振華診所", "id": "3542020729"}}, {"geometry": {"type": "Point", "coordinates": ["120.2953102751", "22.7911653038"]}, "type": "Feature", "properties": {"phone": "07-6233598", "add": "高雄市岡山區柳橋東路30號", "code": "07", "name": "楊禮瑜診所", "id": "3542022214"}}, {"geometry": {"type": "Point", "coordinates": ["120.3060273279", "22.7913574998"]}, "type": "Feature", "properties": {"phone": "07-6228926", "add": "高雄市岡山區岡燕路320號", "code": "07", "name": "林怡仁診所", "id": "3542022170"}}, {"geometry": {"type": "Point", "coordinates": ["120.2986652131", "22.7938209771"]}, "type": "Feature", "properties": {"phone": "07-6229868", "add": "高雄市岡山區中山北路47號", "code": "07", "name": "吳宗慶診所", "id": "3542020738"}}, {"geometry": {"type": "Point", "coordinates": ["120.295132379", "22.7976740554"]}, "type": "Feature", "properties": {"phone": "07-6230011", "add": "高雄市岡山區岡山路347之1號", "code": "07", "name": "黃耳鼻喉科診所", "id": "3542020130"}}, {"geometry": {"type": "Point", "coordinates": ["120.2842193668", "22.7855994715"]}, "type": "Feature", "properties": {"phone": "07-6261515", "add": "高雄市岡山區仁壽路39號", "code": "07", "name": "盧榮福內兒科診所", "id": "3542020201"}}, {"geometry": {"type": "Point", "coordinates": ["120.2847005451", "22.7895642051"]}, "type": "Feature", "properties": {"phone": "07-6250919", "add": "高雄市岡山區大義二路1號", "code": "07", "name": "國軍高雄總醫院岡山分院 附設民眾診療服務處", "id": "0542020011"}}, {"geometry": {"type": "Point", "coordinates": ["120.2869238992", "22.7957347524"]}, "type": "Feature", "properties": {"phone": "07-6262997", "add": "高雄市岡山區前峰路73號", "code": "07", "name": "翁明清婦產科診所", "id": "3542020363"}}, {"geometry": {"type": "Point", "coordinates": ["120.2878043396", "22.7951795193"]}, "type": "Feature", "properties": {"phone": "07-6258387", "add": "高雄市岡山區前峰路41號", "code": "07", "name": "得安診所", "id": "3542020461"}}, {"geometry": {"type": "Point", "coordinates": ["120.2944633499", "22.7931867378"]}, "type": "Feature", "properties": {"phone": "07-6228617", "add": "高雄市岡山區維新路51號", "code": "07", "name": "劉志廷家庭醫學科診所", "id": "3542020309"}}, {"geometry": {"type": "Point", "coordinates": ["120.2960744544", "22.7892262185"]}, "type": "Feature", "properties": {"phone": "07-6297200", "add": "高雄市岡山區岡山路73號", "code": "07", "name": "陳國俊小兒科診所", "id": "3542022250"}}, {"geometry": {"type": "Point", "coordinates": ["120.2841853377", "22.7943957275"]}, "type": "Feature", "properties": {"phone": "07-6263592", "add": "高雄市岡山區公園西路三段86之1號", "code": "07", "name": "皇明診所", "id": "3542020596"}}, {"geometry": {"type": "Point", "coordinates": ["120.288568787", "22.7946966397"]}, "type": "Feature", "properties": {"phone": "07-6270101", "add": "高雄市岡山區前峰路39號", "code": "07", "name": "黃子育診所", "id": "3542020676"}}, {"geometry": {"type": "Point", "coordinates": ["120.2973204467", "22.7966504428"]}, "type": "Feature", "properties": {"phone": "07-6215799", "add": "高雄市岡山區大德一路15號1至2樓", "code": "07", "name": "新博愛診所", "id": "3542021986"}}, {"geometry": {"type": "Point", "coordinates": ["120.2944433401", "22.7966117664"]}, "type": "Feature", "properties": {"phone": "07-6222131", "add": "高雄市岡山區壽天路12號", "code": "07", "name": "高雄市立岡山醫院 (委託秀傳醫療社團法人經 營)", "id": "0942020019"}}, {"geometry": {"type": "Point", "coordinates": ["120.3021670602", "22.8186558938"]}, "type": "Feature", "properties": {"phone": "07-6224457", "add": "高雄市岡山區嘉興路117號", "code": "07", "name": "天佑診所", "id": "3542020630"}}, {"geometry": {"type": "Point", "coordinates": ["120.2967881759", "22.7879873117"]}, "type": "Feature", "properties": {"phone": "07-6229292", "add": "高雄市岡山區岡山路92號", "code": "07", "name": "惠川醫院", "id": "1542021171"}}, {"geometry": {"type": "Point", "coordinates": ["120.2959555396", "22.7942527885"]}, "type": "Feature", "properties": {"phone": "07-6219156", "add": "高雄市岡山區岡山路380之1號", "code": "07", "name": "劉光雄醫院", "id": "1542020067"}}, {"geometry": {"type": "Point", "coordinates": ["120.2919482329", "22.7954601247"]}, "type": "Feature", "properties": {"phone": "07-6223189", "add": "高雄市岡山區平和路200號", "code": "07", "name": "蘇俊明小兒科診所", "id": "3542022054"}}, {"geometry": {"type": "Point", "coordinates": ["120.2958669808", "22.7957558837"]}, "type": "Feature", "properties": {"phone": "07-6221231", "add": "高雄市岡山區岡山路428號", "code": "07", "name": "劉嘉修醫院", "id": "1542020058"}}, {"geometry": {"type": "Point", "coordinates": ["120.2960143045", "22.793695957"]}, "type": "Feature", "properties": {"phone": "07-6219595", "add": "高雄市岡山區岡山路312之1號1樓", "code": "07", "name": "岡山家福耳鼻喉科診所", "id": "3507020021"}}, {"geometry": {"type": "Point", "coordinates": ["120.3879070218", "22.6150850069"]}, "type": "Feature", "properties": {"phone": "07-7836127", "add": "高雄市大寮區鳳林四路56號", "code": "07", "name": "大統內兒科診所", "id": "3542062094"}}, {"geometry": {"type": "Point", "coordinates": ["120.4073117317", "22.6146653939"]}, "type": "Feature", "properties": {"phone": "07-7810565", "add": "高雄市大寮區林厝路53號1樓", "code": "07", "name": "杏安診所", "id": "3542062290"}}, {"geometry": {"type": "Point", "coordinates": ["120.4185061514", "22.6426021212"]}, "type": "Feature", "properties": {"phone": "07-6518042", "add": "高雄市大寮區九和路9號", "code": "07", "name": "太樹診所", "id": "3542060125"}}, {"geometry": {"type": "Point", "coordinates": ["120.3944954146", "22.6371006374"]}, "type": "Feature", "properties": {"phone": "07-7038417", "add": "高雄市大寮區鳳屏一路562號", "code": "07", "name": "大順診所", "id": "3542060769"}}, {"geometry": {"type": "Point", "coordinates": ["120.3926695882", "22.6360905929"]}, "type": "Feature", "properties": {"phone": "07-7013668", "add": "高雄市大寮區鳳屏一路464號1樓", "code": "07", "name": "大承耳鼻喉科診所", "id": "3542062307"}}, {"geometry": {"type": "Point", "coordinates": ["120.3848743661", "22.617691441"]}, "type": "Feature", "properties": {"phone": "07-7835175", "add": "高雄市大寮區鳳林四路192號", "code": "07", "name": "瑞生醫院", "id": "1542061148"}}, {"geometry": {"type": "Point", "coordinates": ["120.3971642777", "22.638204631"]}, "type": "Feature", "properties": {"phone": "07-7032000", "add": "高雄市大寮區鳳屏一路690號1樓", "code": "07", "name": "詠新耳鼻喉科診所", "id": "3507060052"}}, {"geometry": {"type": "Point", "coordinates": ["120.3857924816", "22.6167168316"]}, "type": "Feature", "properties": {"phone": "07-7861305", "add": "高雄市大寮區鳳林四路156號", "code": "07", "name": "洪耳鼻喉科診所", "id": "3542060401"}}, {"geometry": {"type": "Point", "coordinates": ["120.3951635024", "22.607652069"]}, "type": "Feature", "properties": {"phone": "07-7823335", "add": "高雄市大寮區鳳林三路541號", "code": "07", "name": "郭其靈診所", "id": "3542060901"}}, {"geometry": {"type": "Point", "coordinates": ["120.4042076889", "22.5417887074"]}, "type": "Feature", "properties": {"phone": "07-6433298", "add": "高雄市大寮區鳳林一路147號", "code": "07", "name": "圓明診所", "id": "3542062156"}}, {"geometry": {"type": "Point", "coordinates": ["120.3843450844", "22.6183070276"]}, "type": "Feature", "properties": {"phone": "07-7860628", "add": "高雄市大寮區鳳林四路228號", "code": "07", "name": "奈良診所", "id": "3542060536"}}, {"geometry": {"type": "Point", "coordinates": ["120.3947558101", "22.6082997767"]}, "type": "Feature", "properties": {"phone": "07-7825382", "add": "高雄市大寮區鳳林三路573號", "code": "07", "name": "張桐榮診所", "id": "3542061953"}}, {"geometry": {"type": "Point", "coordinates": ["120.3928529685", "22.6361138642"]}, "type": "Feature", "properties": {"phone": "07-7038188", "add": "高雄市大寮區鳳屏一路472號1樓", "code": "07", "name": "大鋐診所", "id": "3507060043"}}, {"geometry": {"type": "Point", "coordinates": ["120.3955781986", "22.6381736067"]}, "type": "Feature", "properties": {"phone": "07-7022626", "add": "高雄市大寮區鳳屏一路443號", "code": "07", "name": "嘉德耳鼻喉科診所", "id": "3542062147"}}, {"geometry": {"type": "Point", "coordinates": ["120.3071441614", "22.7537182313"]}, "type": "Feature", "properties": {"phone": "07-6127655", "add": "高雄市橋頭區隆豐路220號", "code": "07", "name": "陳性良診所", "id": "3542110326"}}, {"geometry": {"type": "Point", "coordinates": ["120.3045042105", "22.7602374656"]}, "type": "Feature", "properties": {"phone": "07-6115040", "add": "高雄市橋頭區樹德路63號1樓", "code": "07", "name": "廖俊安診所", "id": "3542111369"}}, {"geometry": {"type": "Point", "coordinates": ["120.3064318444", "22.7545703778"]}, "type": "Feature", "properties": {"phone": "07-6128080", "add": "高雄市橋頭區隆豐路170號1樓", "code": "07", "name": "正心診所", "id": "3542111396"}}, {"geometry": {"type": "Point", "coordinates": ["120.3536947058", "22.7268857149"]}, "type": "Feature", "properties": {"phone": "07-3528996", "add": "高雄市大社區金龍路138號", "code": "07", "name": "富安診所", "id": "3542090150"}}, {"geometry": {"type": "Point", "coordinates": ["120.2571570634", "22.8654572114"]}, "type": "Feature", "properties": {"phone": "07-6975903", "add": "高雄市路竹區中山路627號", "code": "07", "name": "高新醫院", "id": "1542150042"}}, {"geometry": {"type": "Point", "coordinates": ["120.3277311207", "22.8775762574"]}, "type": "Feature", "properties": {"phone": "07-6311267", "add": "高雄市阿蓮區中山路150號", "code": "07", "name": "長佑醫院", "id": "1542140046"}}, {"geometry": {"type": "Point", "coordinates": ["120.332980437", "22.8805383378"]}, "type": "Feature", "properties": {"phone": "07-6317288", "add": "高雄市阿蓮區中正路383號", "code": "07", "name": "阿蓮康健診所", "id": "3507140028"}}, {"geometry": {"type": "Point", "coordinates": ["120.4207535519", "22.6594024973"]}, "type": "Feature", "properties": {"phone": "07-6527978", "add": "高雄市大樹區久堂路30號1樓", "code": "07", "name": "尚文診所", "id": "3542071342"}}, {"geometry": {"type": "Point", "coordinates": ["120.4340388039", "22.6946805331"]}, "type": "Feature", "properties": {"phone": "07-6527531", "add": "高雄市大樹區中正一路423號", "code": "07", "name": "宏彰診所", "id": "3542071280"}}, {"geometry": {"type": "Point", "coordinates": ["120.4190201119", "22.6565545012"]}, "type": "Feature", "properties": {"phone": "07-6519312", "add": "高雄市大樹區建村街74號", "code": "07", "name": "丰聯診所", "id": "3542070210"}}, {"geometry": {"type": "Point", "coordinates": ["120.4348088789", "22.6914739882"]}, "type": "Feature", "properties": {"phone": "07-6522708", "add": "高雄市大樹區中興東路46號", "code": "07", "name": "黃百祿診所", "id": "3542070229"}}, {"geometry": {"type": "Point", "coordinates": ["120.3530726734", "22.7922260282"]}, "type": "Feature", "properties": {"phone": "07-6163160", "add": "高雄市燕巢區中民路861號1樓", "code": "07", "name": "吳宏彰診所", "id": "3542121356"}}, {"geometry": {"type": "Point", "coordinates": ["120.3624408", "22.7650492"]}, "type": "Feature", "properties": {"phone": "07-6150022", "add": "高雄市燕巢區義大路21號", "code": "07", "name": "義大醫療財團法人 義大癌治療醫院", "id": "1107120017"}}, {"geometry": {"type": "Point", "coordinates": ["120.4854441685", "22.8849815319"]}, "type": "Feature", "properties": {"phone": "07-6622391", "add": "高雄市旗山區中華路618號1至6樓", "code": "07", "name": "廣聖醫療社團法人廣聖醫院", "id": "0907030013"}}, {"geometry": {"type": "Point", "coordinates": ["120.4832766067", "22.8806936495"]}, "type": "Feature", "properties": {"phone": "07-6613811", "add": "高雄市旗山區中學路60號", "code": "07", "name": "衛生福利部旗山醫院", "id": "0142030019"}}, {"geometry": {"type": "Point", "coordinates": ["120.4832226787", "22.8836168824"]}, "type": "Feature", "properties": {"phone": "07-6617602", "add": "高雄市旗山區延平一路689號", "code": "07", "name": "博愛醫院", "id": "1542030063"}}, {"geometry": {"type": "Point", "coordinates": ["120.5480804274", "22.894009017"]}, "type": "Feature", "properties": {"phone": "07-6818495", "add": "高雄市美濃區合和路56號", "code": "07", "name": "三聖醫院", "id": "1542040050"}}, {"geometry": {"type": "Point", "coordinates": ["120.4546038907", "22.9182443999"]}, "type": "Feature", "properties": {"phone": "07-6674882", "add": "高雄市內門區中正路168號", "code": "07", "name": "觀亭診所", "id": "3542241059"}}, {"geometry": {"type": "Point", "coordinates": ["120.6375163477", "22.9952005858"]}, "type": "Feature", "properties": {"phone": "07-6895789", "add": "高雄市六龜區太平路114號", "code": "07", "name": "大嘉診所", "id": "3542211257"}}, {"geometry": {"type": "Point", "coordinates": ["120.5024712", "22.6821979"]}, "type": "Feature", "properties": {"phone": "08-7363026", "add": "屏東縣屏東市華山里大連路60號", "code": "43", "name": "屏基醫療財團法人屏東基督教醫院", "id": "1143010012"}}, {"geometry": {"type": "Point", "coordinates": ["120.4955456332", "22.6732636627"]}, "type": "Feature", "properties": {"phone": "08-7363011", "add": "屏東縣屏東市興樂里自由路270號", "code": "43", "name": "衛生福利部屏東醫院", "id": "0143010011"}}, {"geometry": {"type": "Point", "coordinates": ["120.4844260576", "22.6818020467"]}, "type": "Feature", "properties": {"phone": "08-7665995", "add": "屏東縣屏東市空翔里中山路123號", "code": "43", "name": "寶建醫療社團法人寶建醫院", "id": "0943010017"}}, {"geometry": {"type": "Point", "coordinates": ["120.5129214618", "22.6609104593"]}, "type": "Feature", "properties": {"phone": "08-7223000", "add": "屏東縣屏東市瑞光里民生東路12-2號", "code": "43", "name": "國仁醫院", "id": "1543010109"}}, {"geometry": {"type": "Point", "coordinates": ["120.5990093652", "22.6744176708"]}, "type": "Feature", "properties": {"phone": "08-7702212", "add": "屏東縣內埔鄉龍潭村昭勝路安平一巷一號", "code": "43", "name": "高雄榮民總醫院屏東分院", "id": "0643130018"}}, {"geometry": {"type": "Point", "coordinates": ["120.5469639578", "22.5540305008"]}, "type": "Feature", "properties": {"phone": "08-7800888", "add": "屏東縣潮州鎮三星里四維路162號", "code": "43", "name": "安泰醫療社團法人潮州安泰醫院", "id": "0943020013"}}, {"geometry": {"type": "Point", "coordinates": ["120.540438", "22.556509"]}, "type": "Feature", "properties": {"phone": "08-7862388", "add": "屏東縣潮州鎮延平路198號", "code": "43", "name": "賴宏銘診所", "id": "3543020616"}}, {"geometry": {"type": "Point", "coordinates": ["120.5399870302", "22.5563617446"]}, "type": "Feature", "properties": {"phone": "08-7894225", "add": "屏東縣潮州鎮三和里朝昇路304號", "code": "43", "name": "張記懷小兒科診所", "id": "3543020643"}}, {"geometry": {"type": "Point", "coordinates": ["120.5456661886", "22.5528228215"]}, "type": "Feature", "properties": {"phone": "08-7882358", "add": "屏東縣潮州鎮三共里四維路115號", "code": "43", "name": "簡瑞徵耳鼻喉科診所", "id": "3543020429"}}, {"geometry": {"type": "Point", "coordinates": ["120.4527337353", "22.4651994436"]}, "type": "Feature", "properties": {"phone": "08-8323146", "add": "屏東縣東港鎮興台里中山路5號", "code": "43", "name": "輔英科技大學附設醫院", "id": "1343030018"}}, {"geometry": {"type": "Point", "coordinates": ["120.4591270098", "22.4743261091"]}, "type": "Feature", "properties": {"phone": "08-8329966", "add": "屏東縣東港鎮興東里中正路一段210號", "code": "43", "name": "安泰醫療社團法人安泰醫院", "id": "0943030019"}}, {"geometry": {"type": "Point", "coordinates": ["120.5967909538", "22.3641437835"]}, "type": "Feature", "properties": {"phone": "08-8789991", "add": "屏東縣枋寮鄉安樂村中山路139號", "code": "43", "name": "枋寮醫療社團法人枋寮醫院", "id": "0943160012"}}, {"geometry": {"type": "Point", "coordinates": ["120.7449033316", "21.9991829591"]}, "type": "Feature", "properties": {"phone": "08-8892705", "add": "屏東縣恆春鎮山腳里恆南路188號", "code": "43", "name": "衛生福利部恆春旅遊醫院", "id": "0143040019"}}, {"geometry": {"type": "Point", "coordinates": ["120.745709397", "22.0010365411"]}, "type": "Feature", "properties": {"phone": "08-8894568", "add": "屏東縣恆春鎮城南里南門路10號", "code": "43", "name": "南門醫療社團法人南門醫院", "id": "0943040015"}}, {"geometry": {"type": "Point", "coordinates": ["120.5053482631", "22.6758159266"]}, "type": "Feature", "properties": {"phone": "08-7379591", "add": "屏東縣屏東市建豐路169號", "code": "43", "name": "小太陽兒科聯合診所", "id": "3543013237"}}, {"geometry": {"type": "Point", "coordinates": ["120.4954310221", "22.6805448803"]}, "type": "Feature", "properties": {"phone": "08-7364494", "add": "屏東縣屏東市溝美里自由路379-4號", "code": "43", "name": "梁宏志診所", "id": "3543011911"}}, {"geometry": {"type": "Point", "coordinates": ["120.4978941094", "22.6681309451"]}, "type": "Feature", "properties": {"phone": "08-7211060", "add": "屏東縣屏東市長春里廣東路1-7號", "code": "43", "name": "林俊傑診所", "id": "3543011984"}}, {"geometry": {"type": "Point", "coordinates": ["120.4919472379", "22.5891306015"]}, "type": "Feature", "properties": {"phone": "08-7772313", "add": "屏東縣萬丹鄉萬全村丹榮路631號", "code": "43", "name": "禾興診所", "id": "3543051460"}}, {"geometry": {"type": "Point", "coordinates": ["120.4890921849", "22.5918317326"]}, "type": "Feature", "properties": {"phone": "08-7770066", "add": "屏東縣萬丹鄉萬全村萬丹路一段440號", "code": "43", "name": "陳宗仁診所", "id": "3543050105"}}, {"geometry": {"type": "Point", "coordinates": ["120.4877291306", "22.5869418301"]}, "type": "Feature", "properties": {"phone": "08-7764028", "add": "屏東縣萬丹鄉萬後村萬壽路二段271號", "code": "43", "name": "慈愛診所", "id": "3543051344"}}, {"geometry": {"type": "Point", "coordinates": ["120.5930366428", "22.3656438795"]}, "type": "Feature", "properties": {"phone": "08-8782940", "add": "屏東縣枋寮鄉枋寮村德興路77號", "code": "43", "name": "屏東縣枋寮鄉衛生所", "id": "2343160012"}}, {"geometry": {"type": "Point", "coordinates": ["120.5029649855", "22.4860713042"]}, "type": "Feature", "properties": {"phone": "08-8642224", "add": "屏東縣南州鄉溪南村人和路239號", "code": "43", "name": "屏東縣南州鄉衛生所", "id": "2343200011"}}, {"geometry": {"type": "Point", "coordinates": ["120.5690139232", "22.6124053483"]}, "type": "Feature", "properties": {"phone": "08-7792414", "add": "屏東縣內埔鄉內埔村中興路191號", "code": "43", "name": "屏東縣內埔鄉衛生所", "id": "2343130014"}}, {"geometry": {"type": "Point", "coordinates": ["120.5431365774", "22.5863696877"]}, "type": "Feature", "properties": {"phone": "08-7712434", "add": "屏東縣竹田鄉竹田村中山路25號", "code": "43", "name": "屏東縣竹田鄉衛生所", "id": "2343140010"}}, {"geometry": {"type": "Point", "coordinates": ["120.7125159569", "22.0698652293"]}, "type": "Feature", "properties": {"phone": "08-8821300", "add": "屏東縣車城鄉福安村福安路2-30號", "code": "43", "name": "屏東縣車城鄉衛生所", "id": "2343230019"}}, {"geometry": {"type": "Point", "coordinates": ["120.4456086104", "22.4674530137"]}, "type": "Feature", "properties": {"phone": "08-8325310", "add": "屏東縣東港鎮朝安里新生三路23號", "code": "43", "name": "屏東縣東港鎮衛生所", "id": "2343030019"}}, {"geometry": {"type": "Point", "coordinates": ["120.7468590958", "22.0032274452"]}, "type": "Feature", "properties": {"phone": "08-8892140", "add": "屏東縣恆春鎮城南里文化路78號", "code": "43", "name": "屏東縣恆春鎮衛生所", "id": "2343040015"}}, {"geometry": {"type": "Point", "coordinates": ["120.625461", "22.370241"]}, "type": "Feature", "properties": {"phone": "08-8782297", "add": "屏東縣春日鄉春日村春日路176號", "code": "43", "name": "屏東縣春日鄉衛生所", "id": "2343310012"}}, {"geometry": {"type": "Point", "coordinates": ["120.3785471014", "22.3485262881"]}, "type": "Feature", "properties": {"phone": "08-8612513", "add": "屏東縣琉球鄉本福村中山路51號", "code": "43", "name": "屏東縣琉球鄉衛生所", "id": "2343220013"}}, {"geometry": {"type": "Point", "coordinates": ["120.5500825859", "22.4704512794"]}, "type": "Feature", "properties": {"phone": "08-7971090", "add": "屏東縣新埤鄉新埤村中正路38號", "code": "43", "name": "屏東縣新埤鄉衛生所", "id": "2343150016"}}, {"geometry": {"type": "Point", "coordinates": ["120.8380501214", "22.0189826243"]}, "type": "Feature", "properties": {"phone": "08-8801279", "add": "屏東縣滿州鄉滿州村中山路31號", "code": "43", "name": "屏東縣滿州鄉衛生所", "id": "2343240015"}}, {"geometry": {"type": "Point", "coordinates": ["120.5422292511", "22.5530178093"]}, "type": "Feature", "properties": {"phone": "08-7882131", "add": "屏東縣潮州鎮三共里永坤路107號", "code": "43", "name": "屏東縣潮州鎮衛生所", "id": "2343020013"}}, {"geometry": {"type": "Point", "coordinates": ["120.489109", "22.73605"]}, "type": "Feature", "properties": {"phone": "08-739-2006", "add": "屏東縣九如鄉九清村九如路二段247號", "code": "43", "name": "屏東縣九如鄉衛生所", "id": "2343080019"}}, {"geometry": {"type": "Point", "coordinates": ["120.4885511193", "22.594946408"]}, "type": "Feature", "properties": {"phone": "08-777-2049", "add": "屏東縣萬丹鄉四維村萬丹路一段501號", "code": "43", "name": "屏東縣萬丹鄉衛生所", "id": "2343050011"}}, {"geometry": {"type": "Point", "coordinates": ["120.5745081698", "22.5717472657"]}, "type": "Feature", "properties": {"phone": "08-781-1794", "add": "屏東縣萬巒鄉萬全村褒忠路14-2號", "code": "43", "name": "屏東縣萬巒鄉衛生所", "id": "2343120018"}}]}